id,name,countryCode,masl,lon,lat
SN47230,ÅKRA UNGDOMSSKOLE,NO,18.0,5.1963,59.2555
SN23670,E16 RYFOSS,NO,406.0,8.8175,61.1375
SN59450,STADLANDET,NO,75.0,5.2115,62.1467
SN12590,E6 MJØSBRUA,NO,128.0,10.6725,60.928
SN26640,E134 DARBU,NO,155.0,9.7773,59.7025
SN67650,FV30 REITSTØA,NO,218.0,10.8718,62.9637
SN18269,OSLO - HAUGENSTUA,NO,123.0,10.9035,59.9535
SN57790,MYKLEBUSTFJELLET,NO,715.0,5.2007,61.6788
SN99895,KVADEHUKEN II,SJ,5.0,11.3475,78.9633
SN233100,HUNGE,SE,343.0,15.0877777777778,62.7513888888889
SN61065,E136 TRESFJORDBRUA,NO,20.0,7.1135,62.6112
SN1039300,LINDENBERG,DE,112.0,14.1206,52.20925
SN743400,LIMOGES-BELLEGARDE,FR,396.0,1.175,45.8611111111111
SN27600,SANDEFJORD,NO,6.0,10.2147,59.132
SN18700,OSLO - BLINDERN,NO,94.0,10.72,59.9423
SN87110,ANDØYA,NO,10.0,16.1312,69.3073
SN40905,RV9 HOVDEN,NO,915.0,7.4553,59.6407
SN27295,FV307 GRAVDAL,NO,20.0,10.1975,59.3037
SN40250,VALLE,NO,308.0,7.5273,59.1972
SN224720,FORSE,SE,120.0,17.0262,63.1466
SN43220,FV44 SÆLEBØ,NO,205.0,6.1937,58.3798
SN19660,E16 SKUI,NO,250.0,10.3855,59.9475
SN18260,OSLO - HØYBRÅTEN,NO,181.0,10.9257,59.9468
SN49240,RV13 LÅTEFOSS ,NO,205.0,6.5832,59.9487
SN1240000,ZIELONA GORA,PL,192.0,15.5244444444444,51.9302777777778
SN623500,DE KOOIJ VK,NL,1.0,4.78111111111111,52.9269444444444
SN52990,ORTNEVIK,NO,4.0,6.134,61.1095
SN5350,NORD-ODAL,NO,147.0,11.558,60.3883
SN76963,KRISTINFELTET,NO,,6.5513,64.994
SN92170,OKSFJORD,NO,45.0,21.437,69.888
SN62240,E39 LØNNSET,NO,15.0,7.3702,62.7603
SN80740,REIPÅ,NO,9.0,13.646,66.9035
SN226900,SKAGSUDDE,SE,11.0,19.0205555555556,63.1886111111111
SN848200,MALAGA/AEROPUERTO,ES,5.0,-4.48222222222222,36.6661111111111
SN27564,SANDEFJORD - MOSSERØD,NO,72.0,10.2025,59.1505
SN241300,BRATTMON,SE,205.0,12.772131147541,60.7569444444444
SN1070,HVALER - BREKKE,NO,20.0,11.0322,59.0418
SN1298200,SZEGED,HU,81.0,20.0905556,46.2561111
SN350200,ABERPORTH,GB,133.0,-4.57111111111111,52.1394444444444
SN71230,FV755 MELTINGEN,NO,225.0,10.7303,63.7905
SN26990,SANDE - GALLEBERG,NO,60.0,10.215,59.6193
SN255700,HORN,SE,90.0,15.8655555555556,57.8863888888889
SN810,TUFSINGDAL - MIDTDAL,NO,687.0,11.732,62.2776
SN55520,FV55 INDRE HAFSLO,NO,249.0,7.2623,61.345
SN60670,FV650 LIABYGDA,NO,318.0,7.0663,62.3285
SN63595,RV70 GRÅURA,NO,212.0,9.2136,62.5818
SN90250,E6 HEIA,NO,230.0,19.0503,69.1448
SN76954,GJØAFELTET,NO,0.0,3.897,61.3322
SN242610,FREDRIKSBERG,SE,305.0,14.2145,60.1418
SN76927,OSEBERG A,NO,83.0,2.8257,60.4913
SN34580,DRANGEDAL-REFSDALSKILEN,NO,65.0,9.0687,59.0767
SN76245,FV17 VÅG,NO,18.0,12.1457,65.2702
SN26864,DRAMMEN SYKEHUS,NO,25.0,10.195,59.7497
SN55260,FV55 HERVAVATN,NO,1304.0,7.8702,61.5482
SN19830,FV289 HURUM,NO,165.0,10.4922,59.548
SN44485,E39 SØYLAND,NO,230.0,5.9877,58.6833
SN76936,SNORRE B,NO,135.0,2.2097,61.525
SN231700,DRAVAGEN,SE,566.0,13.6116666666667,62.0944444444444
SN26900,DRAMMEN - BERSKOG,NO,6.0,10.1207,59.7538
SN27214,VÅLE,NO,110.0,10.2799816,59.4109629
SN19525,BÆRUMS VERK,NO,203.0,10.515,59.9383
SN50505,KV5738 NATTLANDSFJELLET,NO,230.0,5.3713,60.3452
SN79215,E6 YTTERVIKA,NO,8.0,13.8728,66.2298
SN61630,BJORLI,NO,579.0,8.2,62.2583
SN31700,FV37 JØNJILJO,NO,200.0,8.9267,59.8703
SN83710,DRAG - AJLUOKTA,NO,6.0,16.0832,68.0483
SN91551,BIRTAVARRE - HOLMEN,NO,20.0,20.8693,69.4802
SN255000,JONKOPING/AXAMO,SE,220.0,14.0691666666667,57.7513888888889
SN50514,FV555 KROSSLEITET,NO,72.0,5.077,60.3183
SN78910,FV17 HØYLANDET,NO,67.0,12.3295,64.6933
SN82310,BODØ - SKIVIKA,NO,5.0,14.4309,67.3084
SN46432,RØLDALSFJELLET - ELVERSHEI,NO,1370.0,6.7108,59.8357
SN8140,EVENSTAD,NO,257.0,11.0803,61.4255
SN222190,OLDEN D,SE,340.0,13.6504,63.6964
SN217390,KLÖVERTRÄSK D,SE,60.0,21.4173,65.636
SN268000,HOBURG,SE,40.0,18.15,56.9166666666667
SN2683200,LIDA,BY,,25.3233333333333,53.9022222222222
SN58750,NORDFJORDEID,NO,6.0,5.9932,61.9068
SN98648,RAGNAROKK,NO,407.0,29.7663,70.367
SN244090,KILAFORS D,SE,50.0,16.5572,61.2489
SN27160,HORTEN II,NO,95.0,10.4647,59.4198
SN291300,KAUHAVA AIRFIELD,FI,44.0,23.0527777777778,63.1358333333333
SN15730,BRÅTÅ - SLETTOM,NO,664.0,7.8955,61.8957
SN85450,SVOLVÆR LUFTHAVN,NO,9.0,14.6693,68.2453
SN99868,ENDALEN,SJ,50.0,15.7815,78.1905
SN2210600,PADUN,RU,61.0,31.8038888888889,68.6083333333333
SN629000,TWENTE AWS,NL,35.0,6.89083333333333,52.2730555555556
SN1033800,HANNOVER,DE,55.0,9.67972222222222,52.4658333333333
SN85890,RØST LUFTHAVN,NO,4.0,12.1038,67.5267
SN47060,E39 AKSDAL SØR,NO,30.0,5.4485,59.418
SN99877,ADVENTDALEN - ICE-WEDGE,SJ,,15.9828,78.1805
SN39030,KRISTIANSAND - HÅNES,NO,83.0,8.0915,58.1813
SN23500,LØKEN I VOLBU,NO,521.0,9.063,61.122
SN50810,ÅSANE,NO,90.0,5.3418,60.4742
SN857100,PORTALEGRE,PT,597.0,-7.42138888888889,39.2941666666667
SN4040,ENEBAKK - BARBØL,NO,164.0,11.1535,59.75
SN44530,TJELTA,NO,29.0,5.5942,58.8437
SN14420,RV15 EIDEFOSSEN,NO,356.0,9.3032,61.8048
SN1193400,POPRAD/TATRY,SK,694.0,20.25,49.0666666666667
SN1618100,PERUGIA S. EGIDIO (16181-0),IT,212.0,12.5102777777778,43.0972222222222
SN4390,KLØFTA,NO,162.0,11.13165,60.0693
SN72710,OVERHALLA - SKOGMO,NO,32.0,12.0177,64.509
SN58705,RV15 STRYNEFJELL-KVITENOVA,NO,1400.0,7.3288,61.9878
SN42520,RISNES I FJOTLAND,NO,348.0,6.9443,58.6577
SN47275,E134 KARMSUNDBRUA,NO,48.0,5.2958,59.3755
SN98630,E75 KOMAGVÆR,NO,25.0,30.5303,70.2453
SN59800,SVINØY FYR,NO,38.0,5.268,62.3293
SN50245,FV48 TYSSE VEST,NO,39.0,5.6942,60.3643
SN1640000,USTICA,IT,242.0,13.1772222222222,38.7072222222222
SN292000,PIETARSAARI KALLAN,FI,2.0,22.5227777777778,63.7513888888889
SN263200,UTKLIPPAN,SE,2.0,15.7077777777778,55.9558333333333
SN52452,E39 NORDHORDLANDSBRUA,NO,17.0,5.267,60.5225
SN802300,SANTANDER,ES,52.0,-3.80055555555556,43.4911111111111
SN23410,FAGERNES LUFTHAMN,NO,822.0,9.3014123,61.0032006
SN1666700,MYTILINI (AIRPORT),GR,18.0,26.6036111111111,39.0538888888889
SN59665,VOLDA BRANNSTASJON,NO,50.0,6.0842,62.1447
SN12680,LILLEHAMMER - SÆTHERENGEN,NO,240.0,10.4762,61.0917
SN50110,KVAM - AKSNESET,NO,13.0,6.2175,60.3372
SN99841,SVALBARD LH - PLATÅBERGET,SJ,435.0,15.3595,78.2342
SN99500,SKOGFOSS,NO,55.0,29.692,69.3717
SN2200300,VAJDA-GUBA,RU,8.0,31.9786111111111,69.9361111111111
SN64510,TINGVOLL,NO,23.0,8.1862,62.9133
SN1070800,SAARBRUECKEN/ENSHEIM,DE,320.0,7.10777777777778,49.2127777777778
SN17650,E6 VESTBY,NO,75.0,10.7395,59.6002
SN830600,PALMA DE MALLORCA/SON SAN JUAN,ES,8.0,2.73666666666667,39.5608333333333
SN42810,TONSTAD - NETTFED,NO,55.0,6.709,58.6642
SN30330,GJERPEN - ÅRHUS,NO,41.0,9.5772,59.2268
SN51010,FOSSMARK,NO,10.0,5.7243,60.5205
SN3370,ØSAKER,NO,45.0,11.0422,59.3193
SN1277200,MISKOLC,HU,161.0,20.7266666667,48.0947222222
SN99090,E6 GANDVIKBAKKEN,NO,84.0,29.1303,70.0278
SN44730,SANDNES - ROVIK,NO,19.0,5.7592,58.8662
SN1213500,HEL,PL,1.0,18.8119444444444,54.6036111111111
SN4590,E16 ROMERIKSÅSEN,NO,415.0,10.7475,60.2755
SN71385,FV715 HOGSDALEN,NO,232.0,10.2425,63.6965
SN51800,MJØLFJELL UH,NO,695.0,6.9373,60.7022
SN31900,TUDDAL,NO,464.0,8.8083,59.7463
SN255200,MALEXANDER,SE,197.0,15.2361111111111,58.0719444444444
SN57380,RV5 LUNDEBOTN,NO,346.0,6.657,61.5158
SN17895,E18 SVARTSKOG,NO,110.0,10.76,59.794
SN56420,FURENESET,NO,7.0,5.0443,61.2928
SN240890,SVANEHOLM D,SE,200.0,12.501,59.1744
SN80707,GLOMFJORD - TVERRFJELLET,NO,930.0,13.9067,66.8303
SN99862,BREINOSA - BLOCKFIELD PLATEAU,SJ,670.0,16.0665,78.143
SN59695,ØRSTA - EITREFJELL,NO,690.0,6.2877,62.16
SN91150,LYNGEN - URA,NO,60.0,20.0923,69.5886
SN18317,OSLO - ELVEBAKKEN,NO,15.0,10.7528,59.9188
SN1022400,BREMEN,DE,4.0,8.79944444444445,53.0463888888889
SN70820,UTGÅRD,NO,50.0,11.729,64.1163
SN3280,RAKKESTAD - SANDER,NO,144.0,11.3937,59.4617
SN292900,LIPERI JOENSUU AIRPORT,FI,121.0,29.6113888888889,62.66
SN16271,HØVRINGEN II,NO,940.0,9.4798,61.8883
SN44640,STAVANGER - VÅLAND,NO,72.0,5.7278,58.9563
SN26580,DRAMMEN - BANGELØKKA,NO,14.0,10.2142,59.731
SN47260,HAUGESUND LUFTHAVN,NO,24.0,5.2115,59.3445
SN61310,FV63 TROLLSTIGEN,NO,700.0,7.662,62.4515
SN53280,E16 FLÅM,NO,15.0,7.1048,60.861
SN71780,ÅFJORD II,NO,30.0,10.2237,63.9678
SN65060,E39 VALSØYFJORDEN,NO,25.0,8.5602,63.1442
SN29720,DAGALI LUFTHAVN,NO,798.0,8.5263,60.4188
SN94640,E69 NORDKAPP,NO,296.0,25.7742,71.1575
SN62270,MOLDE LUFTHAVN,NO,3.0,7.2617,62.7443
SN1327200,BEOGRAD/SURCIN,RS,96.0,20.2833333333333,44.8166666666667
SN72650,OVERHALLA - UNNSET,NO,26.0,11.8397,64.4815
SN37310,GRYTÅI,NO,645.0,8.3442,59.1723
SN1016200,SCHWERIN,DE,59.0,11.3872222222222,53.6425
SN54590,E16 HONING BRU,NO,742.0,8.0172,61.1022
SN306600,KINLOSS,GB,7.0,-3.56361111111111,57.6455555555556
SN30285,SKIEN - BORGEÅSEN,NO,75.0,9.6638,59.1642
SN27262,TØNSBERG - KARLSVIK,NO,3.0,10.5145,59.2952
SN224400,JUNSELE,SE,215.0,16.95,63.6833333333333
SN223000,GUBBHOGEN,SE,310.0,15.5563888888889,64.2183333333333
SN1258000,RZESZOW-JASIONKA,PL,211.0,22.02,50.1113888888889
SN13750,ØVRE HEIMDALSVATN,NO,1088.0,8.8945,61.4183
SN99763,REINDALSPASSET,SJ,181.0,17.0442,78.0648
SN19923,E18 LIERSKOGEN,NO,250.0,10.33,59.819
SN54330,E16 BORGUND,NO,410.0,7.8478,61.0795
SN52930,BREKKE I SOGN,NO,240.0,5.425,60.9585
SN46300,SULDALSVATN,NO,333.0,6.809,59.5887
SN231990,MARBY D,SE,325.0,14.2939,63.122
SN223090,KYRKTÅSJÖ D,SE,260.0,15.8478,64.2485
SN1632000,BRINDISI,IT,15.0,17.9516,40.6578
SN88010,E6 GRATANGSFJELLET,NO,344.0,17.9052,68.6753
SN20470,E16 BEKKEHALLUM,NO,385.0,10.5295,60.2822
SN19815,FV281 STORSAND HURUM,NO,12.0,10.6038,59.6415
SN99880,PYRAMIDEN,SJ,20.0,16.3603,78.6557
SN397000,CLAREMORRIS,IE,69.0,-8.98333333333333,53.7166666666667
SN90630,FV863 GAMNES,NO,8.0,19.4737,69.903
SN224310,BACKE D,SE,215.0,16.4058,63.8148
SN1653900,CAPO FRASCA,IT,89.0,8.45944444444445,39.7411111111111
SN47170,NORHEIM,NO,43.0,5.3115,59.3755
SN27271,TØNSBERG GJESTEHAVN,NO,3.0,10.4019,59.27
SN87750,GAUSVIK,NO,7.0,16.4947,68.609
SN26840,KROKSTADELVA - LANGELØKKA,NO,139.0,10.0123,59.7658
SN96650,FV98 IFJORDFJELLET,NO,357.0,27.5915,70.4275
SN401800,KEFLAVIKURFLUGVOLLUR,IS,47.0,-22.58758,63.97468
SN47610,BASURA,NO,568.0,6.0873,59.6357
SN79720,LAPPSÆTRA,NO,550.0,14.8892,66.2785
SN8780,LI BRU,NO,750.0,10.0002444,62.0099727
SN12180,ILSENG,NO,182.0,11.2028,60.8028
SN68290,SELBU II,NO,160.0,11.0075,63.2248
SN729200,LUXEUIL,FR,270.0,6.36444444444444,47.7869444444444
SN212620,BLAIKEN D,SE,350.0,16.857,65.2511
SN90495,STAKKEVOLLAN,NO,80.0,18.982,69.6942
SN33300,HONNEGRASNUTEN,NO,1340.0,7.8173,59.7675
SN99754,HORNSUND,SJ,10.0,15.5353,77.0002
SN60242,ÅKNESSKARET,NO,1147.0,6.9869,62.1883
SN66630,FV700 VOLL,NO,220.0,9.8413,62.8763
SN27800,HEDRUM,NO,31.0,9.9641,59.196
SN18245,OSLO - AMMERUD,NO,201.0,10.8737,59.9652
SN77280,LAKSFORS,NO,50.0,13.2892,65.6215
SN76939,VALHALL A,NO,95.0,3.3928,56.2781
SN27540,SANDEFJORD - GJEKSTAD,NO,10.0,10.2558,59.1312
SN56250,E39 ÅBERGSDALEN,NO,140.0,5.827,61.2922
SN19510,ØVREVOLL,NO,123.0,10.6227,59.94046
SN76957,TROLL B,NO,,3.501,60.7735
SN26894,DRAMMEN - GULSKOGEN,NO,30.0,10.1672,59.7413
SN55290,SOGNEFJELLHYTTA,NO,1413.0,7.9957,61.5648
SN296300,JOKIOINEN OBSERVATORY,FI,104.0,23.4975,60.8138888888889
SN60870,SULA - LANGEVÅG,NO,20.0,6.1922,62.4402
SN50526,RV555 SOTRABRUA VIND,NO,50.0,5.1738,60.3725
SN3317700,Volodymyr-Volynskyi,UA,194.0,24.3436111111111,50.8330555555556
SN19932,GLITREVANN,NO,360.0,10.065,59.8562
SN39212,E39 FIDJANE,NO,80.0,7.9397,58.1412
SN26230,FV287 SANDSBRÅTEN,NO,108.0,9.5908,60.041
SN2210100,YANISKOSKI,RU,98.0,28.7811111111111,68.9705555555555
SN27450,MELSOM,NO,26.0,10.345751,59.229738
SN76930,NORNE,NO,33.0,8.085,66.0256
SN251800,NIDINGEN,SE,2.0,11.9063888888889,57.3038888888889
SN98265,FV890 GEDNJE,NO,225.0,29.0918,70.5292
SN63580,ÅNGÅRDSVATNET,NO,596.0,9.1967,62.6708
SN90980,OLDERVIK,NO,17.0,19.6647,69.7565
SN58780,NORDFJORDEID - NYMARK,NO,34.0,6.0392,61.9183
SN99790,ISFJORD RADIO,SJ,7.0,13.6192,78.0625
SN55550,HAFSLO,NO,246.0,7.1887,61.2925
SN244120,LEKSAND,SE,175.0,15.0167,60.7256
SN42720,BAKKE,NO,75.0,6.657,58.4117
SN97251,KARASJOK - MARKANNJARGA,NO,131.0,25.5023,69.4635
SN227190,HOLMFORS D,SE,150.0,20.5185,64.7855
SN264800,VAXJO,SE,199.0,14.8325,56.8463888888889
SN83300,STEIGEN,NO,31.0,15.1123,67.923
SN85480,E10 GIMSØYSTRAUMEN BRU,NO,20.0,14.2498,68.2628
SN97350,CUOVDDATMOHKKI,NO,286.0,24.4312,69.3695
SN1227200,OLSZTYN,PL,133.0,20.4227777777778,53.7711111111111
SN88100,BONES I BARDU,NO,230.0,18.2442,68.6457
SN310000,TIREE,GB,12.0,-6.88277777777778,56.5
SN57150,E39 HALBRENDSLIA,NO,247.0,5.8222,61.4413
SN34370,E18 FARSJØ,NO,60.0,9.3323,58.9397
SN713000,RENNES-SAINT JACQUES,FR,38.0,-1.73388888888889,48.0688888888889
SN34810,TØRDAL - KLEPPE,NO,489.0,8.7345,59.1707
SN73550,GARTLAND,NO,95.0,12.3837,64.531
SN88623,STEINFJORD,NO,5.0,17.35,69.4625
SN27435,NØTTERØY - VESTSKOGEN,NO,25.0,10.4023,59.2417
SN19405,BÆRUM - STORØYA,NO,5.0,10.608,59.8909
SN307500,WICK AIRPORT,GB,38.0,-3.09,58.4538888888889
SN67270,E6 SOKNEDAL,NO,160.0,10.2373,62.983
SN27785,E18 RØDBØL,NO,70.0,10.1062,59.107
SN27130,FV310 KOTTERUD,NO,40.0,10.4217,59.432
SN202000,KATTERJAKK,SE,516.0,18.1713888888889,68.4211111111111
SN96850,TANA BRU,NO,32.0,28.159,70.2122
SN57365,E39 VASSENDEN,NO,210.0,6.1298,61.5027
SN13125,E6 TINGBERG,NO,200.0,10.2868,61.2865
SN763000,TOULOUSE BLAGNAC,FR,152.0,1.37888888888889,43.6211111111111
SN2202800,TERIBERKA,RU,33.0,35.1069444444444,69.2022222222222
SN96931,POLMAK TOLLSTED,NO,18.0,28.0012,70.0733
SN46150,SAND I RYFYLKE II,NO,25.0,6.276,59.4791
SN8720,ATNSJØEN,NO,749.0,10.1398,61.8902
SN68230,TRONDHEIM - RISVOLLAN,NO,84.0,10.4228226,63.3986067
SN29400,SANDHAUG,NO,1250.0,7.4805,60.1833
SN261600,FALSTERBO,SE,3.0,12.8194444444444,55.3838888888889
SN30270,PORSGRUNN - KJØLNES,NO,4.0,9.6663,59.1405
SN80880,SANDHORNØYA - VÅTVIKFJELLET,NO,600.0,14.1663,67.093
SN70850,SNÅSA - KJEVLIA,NO,195.0,12.4692,64.1587
SN91530,GAMANJUNNI,NO,1237.0,20.5787,69.4818
SN802700,SAN SEBASTIAN/IGUELDO,ES,251.0,-2.04111111111111,43.3063888888889
SN228790,VÄNNÄS D,SE,100.0,19.8144,63.9226
SN253920,KÄLLSJÖ,SE,154.0,12.7042,57.2323
SN42490,FV42 HADDELANDSHEIA,NO,470.0,7.0787,58.5047
SN284900,SALLA KK MYLLYTIE,FI,215.0,28.6741666666667,66.8341666666667
SN283500,INARI NELLIM,FI,121.0,28.2994444444444,68.8491666666667
SN48070,E39 STORDABRUA,NO,20.0,5.4025,59.7465
SN206405,SAITTAROVA D,SE,240.0,22.2433,67.3345
SN256540,OSKARSHAMN,SE,20.0,16.4149,57.2674
SN19710,ASKER,NO,163.0,10.4358,59.8558
SN232980,LOBONÄS D,SE,220.0,15.3444,61.5338
SN69190,RV705 SELBUSKOGEN,NO,330.0,11.0887,63.338
SN1650,STRØMSFOSS SLUSE,NO,113.0,11.6599,59.3006
SN297900,KOKAR BOGSKAR,FI,4.0,20.3555555555556,59.5055555555556
SN702700,CAEN-CARPIQUET,FR,78.0,-0.456111111111111,49.18
SN240830,BENGTSFORS D,SE,125.0,12.2326,59.0459
SN43010,EIK - HOVE,NO,65.0,6.5045,58.507
SN262910,MARKARYD,SE,110.0,13.6191,56.4595
SN89233,FV86 ANDSVANNET,NO,170.0,18.2972,69.0917
SN228700,HOLMON,SE,6.0,20.8644444444444,63.8069444444444
SN81930,STORSTILLA,NO,565.0,15.973,67.0129
SN252000,SATENAS,SE,54.0,12.7138888888889,58.4288888888889
SN6003000,LAS PALMAS DE GRAN CANARIA/GANDO,ES,24.0,-15.3894444444444,27.9225
SN91180,LENANGSSTRAUMEN,NO,45.0,20.1387,69.8915
SN15951,RV15 BREIDALEN II,NO,929.0,7.3927,62.0107
SN16265,E6 ROSTEN,NO,380.0,9.4153,61.8783
SN48061,FV542 BREMNES,NO,13.0,5.1872,59.7973
SN297200,TURKU AIRPORT,FI,45.0,22.2791666666667,60.5155555555556
SN2280200,SORTAVALA,RU,17.0,30.7166666666667,61.7166666666667
SN9303,E6 HJERKINN,NO,1025.0,9.5317,62.2318
SN1300,FV220 HOLENE BRU,NO,114.0,11.4468,59.24
SN201300,RITSEM,SE,542.0,17.4712,67.727
SN626000,DE BILT AWS,NL,2.0,5.17972222222222,52.0988888888889
SN3480,E18 MELLEBY,NO,158.0,11.4535,59.546
SN1054800,MEININGEN,DE,450.0,10.377062,50.561752
SN91727,ARNØYHAMN,NO,10.0,20.6315,70.0537
SN26780,SOLBERGELVA - OLLEVEIEN,NO,54.0,10.0582,59.7655
SN647900,KLEINE BROGEL,BE,61.0,5.46277777777778,51.1688888888889
SN251300,GOTEBORG,SE,2.0,11.9925,57.7155555555556
SN857500,BRAGANCA (8575-0),PT,691.0,-6.74277777777778,41.8038888888889
SN44580,STAVANGER - MADLA,NO,15.0,5.6697,58.9482
SN4781,GARDERMOEN SØR,NO,202.0,11.0743,60.1883
SN59680,ØRSTA-VOLDA LUFTHAMN,NO,74.0,6.078056927162791,62.180413205637954
SN45675,RV13 ÅRDAL,NO,5.0,6.1737,59.1497
SN209590,TÄRENDÖ D,SE,165.0,22.6287,67.1661
SN1724000,ISPARTA,TR,997.0,30.567912,37.784833
SN78350,BARDAL,NO,39.0,13.3917,66.2178
SN39520,RV9 MOISUND,NO,121.0,7.7772,58.4909
SN374600,BOSCOMBE DOWN,GB,124.0,-1.75472222222222,51.1616666666667
SN41090,MANDAL III,NO,10.0,7.4517,58.0247
SN280100,ENONTEKIO KILPISJARVI,FI,480.0,20.7911111111111,69.0494444444444
SN3005,E6 INGEDAL,NO,40.0,11.2075,59.1778
SN211905,KVIKKJOKK-ÅRRENJARKA,SE,314.0,18.0226,66.8834
SN99380,KIRKENES LUFTHAVN - HØYDE 212,NO,212.0,29.8695,69.71
SN60640,VALLDAL - MURI,NO,2.0,7.2525,62.297
SN92750,HASVIK LUFTHAVN,NO,6.0,22.1457,70.4865
SN87950,GRATANGEN - ÅMUNDSVIKA,NO,1.0,17.3388,68.7252
SN1031500,MUENSTER/OSNABRUECK,DE,48.0,7.69694444444444,52.1344444444444
SN1250000,JELENIA GORA,PL,342.0,15.7888888888889,50.9002777777778
SN44562,ULLANDHAUG,NO,30.0,5.69005,58.93355
SN23550,BEITOSTØLEN II,NO,965.0,8.9228,61.2508
SN86290,GIMSØY - ÅRRSTRANDA,NO,9.0,14.113,68.3052
SN26852,DRAMMEN - BRAGERNES SKOLE,NO,65.0,10.2258,59.7487
SN53480,KLEVAVATNET,NO,960.0,7.2085,60.7192
SN46850,HUNDSEID I VIKEDAL,NO,159.0,5.9948,59.5553
SN30288,SKIEN - KJØRBEKKSVINGEN,NO,9.0,9.6297,59.1768
SN30261,PORSGRUNN,NO,10.0,9.6385,59.1353
SN226520,BREDBYN D,SE,80.0,18.0717,63.4612
SN218490,SKRÖVEN D,SE,150.0,21.8444,66.7757
SN3300800,BREST,BY,146.0,23.6858,52.1167
SN76780,SANDNESSJØEN - ÅSEN,NO,73.0,12.612,66.014
SN32540,RV36 ULEFOSS,NO,50.0,9.2802,59.2728
SN88650,SENJA - BOTNHAMN,NO,20.0,17.8708,69.5015
SN25165,RV52 HEMSEDALSFJELLET,NO,1130.0,8.1557,60.9757
SN12210,ARSTADTAJET,NO,225.0,11.1333,60.767
SN32890,HØYDALSMO II,NO,560.0,8.1992,59.497
SN60945,ÅLESUND IV,NO,15.0,6.2108,62.4703
SN69100,VÆRNES,NO,12.0,10.9305,63.4597
SN292400,AHTARI MYLLYMAKI,FI,159.0,24.2172222222222,62.535
SN210200,STEKENJOKK,SE,1036.0,14.5086111111111,65.0944444444444
SN68840,STUGUDAL - KÅSEN,NO,730.0,11.8626,62.89515
SN24600,GRIMELI I KRØDSHERAD,NO,367.0,9.5958,60.137
SN60810,LEBERGSFJELLET,NO,625.0,6.8717,62.5158
SN99990,TROLL I ANTARKTIS,AQ,1310.0,2.5408,-72.012
SN37600,FV355 VEUM,NO,326.0,8.0895,59.2842
SN266400,RONNEBY-BREDAKRA,SE,58.0,15.2680555555556,56.2669444444444
SN53160,JORDALEN - NÅSEN,NO,614.0,6.7243,60.9004
SN30282,SKIEN - RØDMYRLIA,NO,98.0,9.6017,59.1702
SN29600,TUNHOVD,NO,870.0,8.7511,60.4629
SN631000,VLISSINGEN AWS,NL,8.0,3.59583333333333,51.4413888888889
SN18170,OSLO - ØSTENSJØ,NO,123.0,10.8368,59.8955
SN11450,MINNESUND JERNBANESTASJON,NO,143.0,11.2302,60.3943
SN29950,SVENNER FYR,NO,15.0,10.148,58.9688
SN67560,KOTSØY,NO,127.0,10.5608,62.9763
SN70960,E6 SNÅSA,NO,215.0,12.341,64.3333
SN59530,FV61 KVILEHYTTA,NO,168.0,5.538,62.0163
SN244000,AMOT,SE,162.0,16.4311111111111,60.9622222222222
SN271400,VAALA PELSO,FI,114.0,26.4402777777778,64.5013888888889
SN1077600,REGENSBURG,DE,365.0,12.1019444444444,49.0422222222222
SN34095,E18 STOKKEBAKKEN,NO,50.0,9.6068,58.9817
SN1711200,CANAKKALE,TR,6.0,26.4,40.1333333333333
SN61064,VESTNES - RÅDHUSET,NO,30.0,7.0903,62.6213
SN203600,NIKKALUOKTA,SE,467.0,19.0255555555556,67.8541666666667
SN808400,LOGRONO/AGONCILLO,ES,353.0,-2.33111111111111,42.4522222222222
SN1642000,MESSINA,IT,51.0,15.5488888888889,38.1997222222222
SN26810,HOKKSUND - LOE,NO,7.0,9.9155,59.7688
SN1255000,CZESTOCHOWA,PL,293.0,19.0925,50.8125
SN30246,E18 PAULER,NO,65.0,9.9418,59.0645
SN88626,SENJAHOPEN,NO,5.0,17.4833,69.5
SN644700,UCCLE,BE,99.0,4.35805555555556,50.7969444444444
SN67210,E6 HORG,NO,40.0,10.255,63.1385
SN81915,SULITJELMA - FAGERLI,NO,163.0,16.0797,67.1195
SN32220,LIFJELL - ØYSTEINNATTEN,NO,1102.0,8.9837,59.5022
SN75410,NORDØYAN FYR,NO,33.0,10.5493,64.7977
SN27770,STOKKE - SOLLI,NO,90.0,10.2022,59.2752
SN18215,OSLO - BROBEKK,NO,155.0,10.8315,59.9323
SN90510,TROMSDALEN,NO,3.0,19.0065,69.6508
SN48450,HUSNES,NO,13.0,5.7694553,59.8641203
SN1523500,FAGARAS,RO,428.0,24.9352777777778,45.8363888888889
SN241820,KRISTINEHAMN,SE,82.0,14.1019,59.3107
SN40420,BYKLE - KULTRAN,NO,594.0,7.3438,59.3505
SN1009100,ARKONA,DE,42.0,13.4341666666667,54.6791666666667
SN88500,GRYLLEFJORD,NO,25.0,17.0513,69.3627
SN79600,MO I RANA LUFTHAVN,NO,70.0,14.3015,66.3643
SN82220,RV80 HUNSTAD,NO,25.0,14.5173,67.2783
SN822100,MADRID/BARAJAS,ES,609.0,-3.55555555555556,40.4666666666667
SN1223500,CHOJNICE,PL,165.0,17.5325,53.7152777777778
SN248190,VÄSTERÅS,SE,10.0,16.6034,59.5977
SN41990,E39 VATLAND,NO,220.0,6.9238,58.2205
SN94870,OLDERFJORD,NO,50.0,25.0767,70.4718
SN27330,TØNSBERG - TARANRØD,NO,33.0,10.2983,59.2938
SN49087,FOLGEFONNA SKISENTER TOPP,NO,1390.0,6.4298,60.2178
SN27420,TJØME,NO,32.0,10.398,59.1205
SN57000,FØRDE LH - BRINGELAND,NO,321.0,5.76,61.391
SN258400,GOTSKA SANDON,SE,,19.2,58.4
SN47445,E39 SVEIO,NO,50.0,5.4848,59.625
SN68125,SVERRESBORG,NO,156.0,10.3498,63.4223
SN86598,STOKMARKNES LH - VEST,NO,3.0,15.0147,68.5813
SN98360,BÅTSFJORD - STRAUMSNESAKSLA,NO,152.0,29.7,70.6028
SN13110,E6 FÅBERG,NO,205.0,10.4107,61.1697
SN11710,EINAVATN,NO,406.0,10.6408,60.59505
SN1624200,ROMA/FIUMICINO,IT,4.0,12.2388888888889,41.8002777777778
SN294700,MIKKELI AIRPORT,FI,99.0,27.2022222222222,61.6886111111111
SN261845,HALMSTAD,SE,24.0,12.9242,56.6737
SN28380,KONGSBERG BRANNSTASJON,NO,170.0,9.6377,59.6247
SN47194,SKUDENES UNGDOMSSKOLE,NO,16.0,5.253,59.1535
SN298100,PARAINEN UTO,FI,9.0,21.3677777777778,59.7841666666667
SN718000,NANCY-ESSEY,FR,229.0,6.22138888888889,48.6877777777778
SN222100,KORSVATTNET,SE,717.0,13.5038888888889,63.8397222222222
SN30255,PORSGRUNN - ÅS,NO,100.0,9.6603,59.0872
SN220700,STORLIEN-STORVALLEN A,SE,583.0,12.1219444444444,63.2827777777778
SN1196800,KOSICE,SK,230.0,21.2166666666667,48.6666666666667
SN55430,JOSTEDALEN - MJØLVERSGRENDI,NO,305.0,7.2762,61.6595
SN30650,NOTODDEN LUFTHAVN,NO,20.0,9.2111,59.5666
SN38150,E18 INNTJORHEIA,NO,70.0,8.462,58.2968
SN17820,E6 NØSTVET,NO,111.0,10.832,59.7718
SN261800,TORUP,SE,133.0,13.0602777777778,56.9494444444444
SN91380,SKIBOTN II,NO,20.0,20.2823,69.3875
SN18233,OSLO - NYLAND,NO,120.0,10.864,59.9452
SN44520,HELLAND I GJESDAL,NO,288.0,6.0135,58.755
SN46090,RV13 EIANE,NO,30.0,6.2927,59.2942
SN245615,FILMS KYRKBY,SE,39.0,17.9078,60.2363
SN1542000,BUCURESTI BANEASA,RO,90.0,26.0780555555556,44.5105555555556
SN44610,KVITSØY - NORDBØ,NO,21.0,5.4122,59.0705
SN55735,RV5 FRUDALEN,NO,521.0,6.8745,61.3473
SN17775,FAGERSTRAND,NO,32.0,10.5886,59.7377
SN64330,KRISTIANSUND LUFTHAVN,NO,62.0,7.8158,63.1093
SN39200,KRISTIANSAND - KVADRATUREN,NO,25.0,7.9968,58.1457
SN262500,SKILLINGE,SE,4.0,14.3172222222222,55.4888888888889
SN57700,RV5 GROV,NO,24.0,5.3312,61.6137
SN71750,BREIVOLL,NO,94.0,10.4055,63.918
SN31520,GROSET,NO,949.0,8.315,59.8358
SN63630,TROLLHEIMEN - STORHORNET,NO,1550.0,9.392,62.6352
SN24890,NESBYEN - TODOKK,NO,166.0,9.1323,60.567
SN1615300,CAPO MELE,IT,220.0,8.16972222222222,43.9572222222222
SN82130,RV80 NORDVIKA,NO,5.0,15.162,67.3312
SN275500,YLIVIESKA AIRFIELD,FI,76.0,24.7247222222222,64.0502777777778
SN77034,FAUSKANE,NO,0.0,5.726357,62.566785
SN51940,E16 VINJE VEST,NO,215.0,6.4997,60.7855
SN618000,KOEBENHAVNS LUFTHAVN,DK,5.0,12.6452777777778,55.6141666666667
SN40510,BLÅSJØ,NO,1105.0,6.8817,59.3335
SN202900,TARFALA,SE,1145.0,18.6072222222222,67.9113888888889
SN91120,LYNGEN - GJERDELVDALEN,NO,670.0,20.15185,69.5599107
SN64590,FV65 ØVRE RINDAL,NO,295.0,9.4367,63.097
SN1674900,RHODES (AIRPORT),GR,6.0,28.0880555555556,36.4019444444444
SN12960,SJUSJØEN - STORÅSEN,NO,930.0,10.7088,61.1638
SN280500,UTSJOKI KEVO,FI,107.0,27.0066666666667,69.7563888888889
SN50570,SKREDDERDALEN,NO,175.0,5.3358,60.404
SN214710,MALÅ,SE,320.0,18.7431,65.1808
SN54320,BORGUND - LO,NO,407.0,7.818,61.0583
SN64970,FV65 NORDMARKA I SURNADAL,NO,244.0,8.6638,63.0075
SN3352600,Ivano-Frankivsk,UA,280.0,24.6891666666667,48.8891666666667
SN76965,OSEBERG C,NO,,2.7757,60.6083
SN99700,BJØRNØYA RADIOSONDESTASJON,SJ,18.0,18.9977,74.5033
SN1151800,PRAHA/RUZYNE,CZ,380.0,14.2555555555556,50.1002777777778
SN31855,E134 AMBJØRNDALEN,NO,335.0,8.585,59.5873
SN17850,ÅS,NO,92.0,10.7818,59.6605
SN57030,FV609 HOLMEDAL VEST,NO,62.0,5.1728,61.3592
SN91060,SJURSNES,NO,25.0,19.7092,69.6017
SN27261,TØNSBERG - VALLØ,NO,9.0,10.4985,59.2625
SN245600,FILM,SE,33.0,17.9044444444444,60.2358333333333
SN37570,BORSÆ,NO,740.0,7.829,59.38
SN242370,ÖSTMARK-ÅSARNA,SE,135.0,12.8538,60.2788
SN211040,HEMAVAN D,SE,475.0,15.0885,65.8224
SN32061,GVARV - NES BIOFORSK,NO,94.0,9.2118,59.3822
SN90360,E8 SANDVIKEIDET,NO,80.0,19.0087,69.5463
SN4455,RV4 ÅNEBY,NO,138.0,10.8467,60.1107
SN601100,TORSHAVN,DK,54.0,-6.76472222222222,62.0230555555556
SN27010,KONNERUD,NO,193.0,10.146,59.713
SN65275,E39 HEMNEKJØLEN,NO,350.0,9.3853,63.228
SN57990,GJENGEDAL,NO,230.0,5.9468,61.6594
SN76929,YME,NO,50.0,4.5345,57.8188
SN203100,RENSJON,SE,494.0,19.8394444444444,68.0747222222222
SN59210,RV 15 MÅLØYBRUA,NO,10.0,5.1213,61.9292
SN50310,KVAMSKOGEN - JONSHØGDI,NO,455.0,5.964,60.3887
SN76938,ULA,NO,111.0,2.8458,57.408
SN85040,ROTVÆR,NO,8.0,15.943,68.368
SN51530,VOSSEVANGEN,NO,54.0,6.4265,60.6252
SN16845,E136 LORA,NO,620.0,8.6903,62.147
SN12700,LILLEHAMMER - VÅRSÆTERGRENDA,NO,507.0,10.5112,61.104
SN26750,FV35 HEMSDALEN HOF,NO,45.0,10.0597,59.5702
SN58860,TROLLEDALSEGGA,NO,1020.0,6.1065,61.8902
SN79253,E12 UMBUKTA,NO,533.0,14.5837,66.1657
SN50175,AUSTEVOLL,NO,32.0,5.2038,60.0167
SN50830,E16 INDRE ARNA,NO,20.0,5.461,60.4213
SN3190,SARPSBORG,NO,57.0,11.1128,59.2852
SN50525,RV555 SOTRABRUA,NO,30.0,5.1555,60.372
SN224740,BORGVATTNET D,SE,380.0,15.8283,63.4248
SN43895,FV44 KVASSHEIM,NO,10.0,5.6815,58.5505
SN65320,FV6200 VERJESKIFTBRUA,NO,19.0,7.9933,63.478
SN45770,HJELMELAND,NO,43.0,6.1498,59.23
SN56895,FV13 GAULARFJELL - MJELL,NO,451.0,6.3215,61.3457
SN59820,FV654 HERØYBRUA ,NO,23.0,5.7208,62.3195
SN2282000,PETROZAVODSK,RU,110.0,34.2666666666667,61.8166666666667
SN5370,FV24 RASAN ,NO,263.0,11.5087,60.5252
SN99879,ADVENTDALEN - INNERHYTTA PINGO,SJ,,16.3442,78.1888
SN17150,RYGGE,NO,40.0,10.798,59.3742
SN18020,OSLO - LAMBERTSETER,NO,135.0,10.8185,59.8775
SN50507,FV285 BØNESSKOGEN,NO,90.0,5.2992,60.331
SN58950,GRODÅS,NO,60.0,6.517,61.972
SN1182600,PIESTANY,SK,163.0,17.8333333333333,48.6166666666667
SN4715,JESSHEIM,NO,203.0,11.1827,60.1481
SN68173,TRONDHEIM - GLØSHAUGEN,NO,60.0,10.4072,63.4153
SN73466,NORDLI - SANDVIKA,NO,420.0,13.5978,64.4595
SN67150,LEINSTRAND,NO,13.0,10.2733,63.3281
SN84905,E10 BJØRNFJELL,NO,499.0,18.1035,68.436
SN55720,SKARDSBØFJELLET,NO,713.0,7.0183,61.2168
SN46820,FV520 ILSTAD,NO,185.0,6.2692,59.5612
SN19958,SYLLING,NO,88.0,10.2937,59.8953
SN76750,SANDNESSJØEN LH - STOKKA,NO,17.0,12.4783,65.9635
SN605200,THYBOROEN,DK,2.0,8.215,56.7066666666667
SN30428,RV36 FJÆREKILEN,NO,20.0,9.5403,59.1855
SN90800,TORSVÅG FYR,NO,21.0,19.4997,70.2452
SN52535,FEDJE,NO,19.0,4.715,60.7525
SN294200,KANKAANPAA NIINISALO PUOLVOIM,FI,124.0,22.4633333333333,61.8386111111111
SN1561400,SOFIA (OBSERV.),BG,595.0,23.3833333333333,42.65
SN99870,ADVENTDALEN,SJ,15.0,15.831,78.2022
SN1065500,WUERZBURG,DE,268.0,9.95777777777778,49.7702777777778
SN86520,SORTLAND - KLEIVA,NO,14.0,15.2832,68.648
SN18980,OSLO - LILLEAKER,NO,23.0,10.635,59.9185
SN40405,RV9 BYKLE,NO,590.0,7.3405,59.3501
SN39750,BYGLANDSFJORD - NESET,NO,207.0,7.803,58.6863
SN76956,GOLIAT FPSO,NO,46.0,22.25,71.3112
SN63705,OPPDAL - SÆTER,NO,604.0,9.666,62.6027
SN20954,DRAUPNER,NO,,2.4728,58.1888
SN52750,FRØYSET,NO,13.0,5.2108,60.8462
SN207290,KANGOS D,SE,230.0,22.6647,67.4954
SN27315,RAMNES - KILE VESTRE,NO,39.0,10.2397,59.3808
SN19940,LIER,NO,39.0,10.2598,59.7908
SN69420,KLUKSDAL,NO,521.0,11.9045,63.2855
SN33990,E134 HAUKELIFJELL,NO,990.0,7.0873,59.8498
SN30249,LANGANGEN,NO,5.0,9.802,59.0875
SN804500,VIGO/PEINADOR,ES,261.0,-8.62388888888889,42.2386111111111
SN1135,FV101 PRESTEBAKKE,NO,160.0,11.5408,58.99
SN62700,HUSTADVATN,NO,80.0,7.2436,62.9087
SN90100,MALANGEN - PÅLFINNMOEN,NO,124.0,18.6773,69.414
SN27055,FV312 HANEKLEIVA,NO,75.0,10.181,59.5735
SN90450,TROMSØ,NO,100.0,18.9368,69.6537
SN35210,GJERSTAD JERNBANESTASJON,NO,32.0,9.0263,58.87
SN61408,E136 HORGHEIM,NO,55.0,7.7612,62.4888
SN88440,SIFJORD,NO,10.0,17.149,69.2858
SN43007,E39 DRANGSDALEN,NO,171.0,6.4062,58.4727
SN240800,BLOMSKOG,SE,170.0,12.0780555555556,59.2219444444444
SN212000,KVIKKJOKK-ARRENJARKA,SE,320.0,18.0166666666667,66.8833333333333
SN231900,BORTNAN,SE,467.0,13.8458333333333,62.7558333333333
SN68110,SKISTUA,NO,451.0,10.2642,63.4182
SN31550,MØSVASSDAMMEN,NO,885.0,8.3265,59.8295
SN91715,FV866 SKATTØRSUND,NO,25.0,20.8985,70.0033
SN3366300,Mohyliv-Podilskyi,UA,78.0,27.7797222222222,48.4525
SN27270,TØNSBERG - KILEN,NO,3.0,10.4312,59.2782
SN46425,E134 RØLDALSTUNNELEN AUST,NO,789.0,6.7383,59.8228
SN44550,SOLA RADIOSONDESTASJON,NO,33.0,5.6645,58.8725
SN85560,LEKNES LUFTHAVN,NO,26.0,13.615,68.155
SN65230,HEMNE - LENES,NO,45.0,9.0115,63.2613
SN1210000,KOLOBRZEG,PL,3.0,15.5805555555556,54.1827777777778
SN47262,KARMØY - STORASUND,NO,31.0,5.264,59.39415
SN55705,RV5 KAUPANGER,NO,170.0,7.2098,61.2017
SN48330,SLÅTTERØY FYR,NO,25.0,5.0668,59.907
SN46930,VATS I VINDAFJORD,NO,20.0,5.7208,59.4927
SN40300,RV9 REIMAMOEN,NO,386.0,7.41,59.2713
SN69010,SVARTTJØRNBEKKEN,NO,285.0,10.648,63.3188
SN91251,MANNDALEN - VADDJA,NO,72.0,20.5268,69.4722
SN27318,UNDRUMSDAL,NO,46.0,10.3672,59.363
SN60980,FV658 GISKEBRUA,NO,17.0,6.0762,62.5082
SN286900,KUUSAMO AIRPORT,FI,264.0,29.2225,65.9955555555556
SN5660,ROVERUD,NO,170.0,12.0913,60.2537
SN715700,ROISSY,FR,119.0,2.53444444444444,49.0152777777778
SN18310,OSLO - TØYEN,NO,19.0,10.7747,59.9147
SN47890,OPSTVEIT,NO,38.0,6.0169242,59.8577805
SN240390,VÄRMLANDS-EKENÄS D,SE,50.0,13.2384,58.8973
SN296500,LAHTI LAUNE,FI,78.0,25.6308333333333,60.9622222222222
SN61070,E39 ØRSKOGFJELL,NO,305.0,6.949,62.5325
SN90650,GRUNNFJORD - STAKKEN,NO,7.0,19.573,70.0083
SN46410,RV13 BOTNEN,NO,403.0,6.7898,59.7528
SN1051300,KOELN/BONN,DE,92.0,7.15861111111111,50.8661111111111
SN226080,NORA-ÖSTANÖ D,SE,50.0,18.1795,62.8599
SN62290,MOLDE - NØISOMHED,NO,5.0,7.2275,62.7413
SN728000,DIJON-LONGVIC,FR,222.0,5.08833333333333,47.2677777777778
SN82970,E6 KRÅKMOFJELLET,NO,326.0,15.9142,67.7463
SN38730,HYNNEKLEIV,NO,162.0,8.4167,58.6007
SN3363100,Uzhhorod,UA,118.0,22.2611111111111,48.6333333333333
SN8800,RV3 ØSTLUND,NO,387.0,10.9097,61.8645
SN56010,HØYANGER VERK,NO,15.0,6.0702,61.22
SN770,ELLEFSPLASS,NO,713.0,11.4525,62.204
SN19925,LIERSKOGEN - HEIA,NO,197.0,10.3292,59.8207
SN12550,KISE PA HEDMARK,NO,128.0,10.8055,60.7733
SN234720,HUDIKSVALL,SE,5.0,17.086,61.7167
SN254000,KROPPEFJALL-GRANAN,SE,174.0,12.1975,58.6069444444444
SN71280,LEKSVIK - MYRAN,NO,138.0,10.6075,63.6856
SN25640,GEILO,NO,841.0,8.1483,60.532
SN391700,ALDERGROVE,GB,82.0,-6.22583333333333,54.6633333333333
SN18265,E6 DJUPDALEN,NO,188.0,10.975,59.962
SN241090,KINDSJÖN D,SE,425.0,12.7103,60.6591
SN295800,LAPPEENRANTA AIRPORT,FI,106.0,28.1511111111111,61.0441666666667
SN37070,RV41 ÅMLI,NO,160.0,8.562,58.9032
SN214910,GLOMMERSTRÄSK,SE,395.0,19.6673,65.278
SN76968,VISUNDFELTET,NO,,2.4327,61.3648
SN76250,SØMNA - STEIN,NO,19.0,12.1643,65.2965
SN291700,SIILINJARVI KUOPIO AIRPORT,FI,96.0,27.7994444444444,63.0083333333333
SN715000,LE BOURGET,FR,67.0,2.4275,48.9675
SN219100,STORON,SE,4.0,23.1008333333333,65.6983333333333
SN628000,GRONINGEN AP EELDE,NL,5.0,6.58472222222222,53.1236111111111
SN85545,LEKNES NORD,NO,15.0,13.6,68.15
SN8450,ATNDALEN - RØNNINGEN,NO,533.0,10.501,61.791
SN26950,SVELVIK - KNEM,NO,4.0,10.4047,59.6027
SN30530,NOTODDEN,NO,34.0,9.2643,59.5688
SN420,HEGGERISET - NORDSTRAND,NO,481.0,11.9963,61.6848
SN241000,MALUNG,SE,308.0,13.6833333333333,60.6666666666667
SN67153,E39 ØYSAND,NO,13.0,10.2438,63.3237
SN765000,MARIGNANE,FR,21.0,5.21611111111111,43.4377777777778
SN760200,BIARRITZ-ANGLET,FR,75.0,-1.53444444444444,43.4694444444444
SN70930,SNÅSA - NAGELHUS,NO,107.0,12.4393,64.249
SN64300,KRISTIANSUND - KARIHOLA,NO,5.0,7.7027,63.1257
SN62900,EIDE PÅ NORDMØRE,NO,49.0,7.3896,62.8909
SN68050,LADE,NO,13.0,10.4428,63.4428
SN66175,FV65 BYE,NO,15.0,9.7628,63.2307
SN1380,RV22 GAUTESTAD,NO,130.0,11.3027,59.376
SN49245,SKARE,NO,255.0,6.5887,59.9333
SN291000,MUSTASAARI VALASSAARET,FI,4.0,21.0644444444444,63.4355555555556
SN52170,EKSINGEDAL,NO,450.0,6.1469,60.8028
SN80700,GLOMFJORD,NO,39.0,13.9793,66.8102
SN13160,KVITFJELL,NO,1030.0,10.1277,61.4648
SN76959,BRAGE,NO,,3.0468,60.5425
SN50770,KV4339 BLINDHEIM,NO,80.0,5.3888,60.4612
SN76932,HEIMDAL,NO,59.0,2.2273,59.5742
SN1252000,KLODZKO,PL,356.0,16.6141666666667,50.4369444444444
SN77040,AASTA HANSTEEN,NO,52.0,7.0958,67.0672
SN1571200,SANDANSKI,BG,203.0,23.2666666666667,41.55
SN209500,PAJALA,SE,164.0,23.39,67.2036111111111
SN79220,SKAMDAL,NO,37.0,13.904,66.2348
SN828000,ALBACETE/LOS LLANOS,ES,702.0,-1.8625,38.9516666666667
SN99927,VERLEGENHUKEN,SJ,8.0,16.2433,80.0555
SN211025,KITTELFJÄLL D,SE,570.0,15.5269,65.2574
SN4090,VALLERUDÅSEN,NO,227.0,10.9425,59.914
SN36200,TORUNGEN FYR,NO,12.0,8.7893,58.3988
SN31400,FYRIEGG,NO,1008.0,8.6978,59.8655
SN3731,E18 SMAALENENE VIND,NO,100.0,11.0917,59.5928
SN84630,NARVIK - FAGERNESFJELLET,NO,1000.0,17.4802,68.421
SN17090,E6 KARLSHUS,NO,50.0,10.897,59.3503
SN58100,SANDANE LUFTHAMN,NO,60.0,6.1043,61.8293
SN86810,FV915 BØ,NO,8.0,14.4898,68.781
SN76914,ITASMOBAWS1,NO,93.0,10.7821181,59.660088
SN202430,BJÖRKUDDEN,SE,376.0,18.7156,67.3956
SN52475,BLOMVÅG - SELE,NO,30.0,4.8933,60.5313
SN76923,GULLFAKS C,NO,80.0,2.2687,61.2042
SN1220500,SZCZECIN,PL,1.0,14.6227777777778,53.3952777777778
SN4960,RV2 UVESUND BRU,NO,130.0,11.4792,60.2688
SN15430,BØVERDAL,NO,700.0,8.2423,61.7195
SN36110,ARENDAL BRANNSTASJON II,NO,50.0,8.7228,58.4613
SN99882,NEDRE SASSENDALEN,SJ,13.0,16.6818,78.3313
SN31660,MOGEN,NO,954.0,7.913,60.018
SN50815,E39 VÅGSBOTN,NO,92.0,5.348,60.4768
SN243530,FALUN-LUGNET,SE,140.0,15.6603,60.619
SN26932,DRAMMEN - AUSTAD,NO,100.0,10.2168,59.721
SN27282,TØNSBERG - VEAR,NO,30.0,10.3603,59.2632
SN53130,FRESVIK,NO,32.0,6.9345,61.0688
SN98976,TORVHAUGDALEN,NO,268.0,29.1003,70.306
SN38380,DOVLAND,NO,259.0,8.0392,58.5234
SN23720,VANG I VALDRES,NO,489.0,8.569,61.124
SN18920,OSLO - BESSERUD,NO,177.0,10.671,59.9573
SN12290,HAMAR II,NO,141.0,11.0948,60.80056
SN99855,LONGYEARDALEN - VALLEY BOTTOM,SJ,,15.609,78.2097
SN4260,SKEDSMO - HELLERUD,NO,143.0,10.9777,59.9775
SN262900,HASTVEDA,SE,103.0,13.9377777777778,56.2744444444444
SN61025,FV659 LEPSØYBRUA,NO,27.0,6.2537,62.5947
SN51470,BULKEN,NO,328.0,6.222,60.6455
SN82450,TENNHOLMEN,NO,,13.57,67.34
SN16040,OTTA - SKANSEN,NO,309.0,9.5413,61.7782
SN94230,ROGNSUNDET,NO,18.0,22.8177,70.4107
SN286200,KEMI AJOS,FI,3.0,24.5152777777778,65.6730555555555
SN12030,E6 ESPA,NO,141.0,11.2502,60.5545
SN78170,E6 OSEN,NO,155.0,13.5822,66.053
SN66740,E6 ULSBERG,NO,425.0,9.9839,62.7509
SN61420,MARSTEIN,NO,67.0,7.8355,62.4458
SN51210,E16 DALSEID,NO,5.0,5.8335,60.6123
SN43530,FV316 SAGLANDSBAKKEN,NO,120.0,6.0762,58.5603
SN218400,PAHAROVA,SE,228.0,22.3363888888889,66.8105555555556
SN17000,STRØMTANGEN FYR,NO,10.0,10.8288,59.1513
SN2980,FV118 SVINESUND,NO,66.0,11.2753,59.1105
SN35090,EIKELAND,NO,42.0,9.098,58.8037
SN91200,NORD-LENANGEN II,NO,10.0,20.1968,69.931
SN84920,E10 TROLLVIKDAL,NO,170.0,17.4255,68.53
SN17380,RYGGE - HUGGENES,NO,35.0,10.7543,59.398
SN26594,DRAMMEN - DANVIK,NO,25.0,10.1973,59.7327
SN58390,INNVIK - HEGGDAL,NO,70.0,6.6,61.838
SN217380,KOLER D,SE,285.0,20.4675,65.504
SN26630,VESTFOSSEN,NO,13.0,9.8728,59.7323
SN50710,E39 EIDSVÅG,NO,22.0,5.3217,60.4365
SN44080,OBRESTAD FYR,NO,24.0,5.5553,58.6592
SN64760,SURNADAL - SYLTE,NO,5.0,8.6895,62.9853
SN98790,VADSØ LUFTHAVN,NO,39.0,29.8352,70.0653
SN12320,HAMAR - STAVSBERG,NO,221.0,11.0697,60.818
SN1185800,HURBANOVO,SK,115.0,18.2,47.8666666666667
SN3377700,Voznesensk,UA,34.0,31.32,47.5825
SN256300,HARSTENA,SE,14.0,17.0105555555556,58.2505555555556
SN670000,GENEVE / COINTRIN,CH,411.0,6.12775,46.247517
SN1080300,FREIBURG,DE,236.0,7.83416666666667,48.0233333333333
SN53680,FLÅM - JOASETBERGI,NO,860.0,7.1603,60.8625
SN99867,GRUVEFJELLET - BLOCKFIELD PLATEAU,SJ,464.0,15.6317,78.1965
SN261100,HELSINGBORG,SE,43.0,12.7652777777778,56.0305555555556
SN18690,E18 HJORTNES,NO,20.0,10.7043,59.9112
SN1631000,CAPO PALINURO,IT,184.0,15.2802777777778,40.025
SN24710,GULSVIK II,NO,142.0,9.605,60.383
SN91505,E6 NORDNES,NO,18.0,20.3988,69.585
SN94430,FV889 SELVIKHØYDEN,NO,127.0,24.6713,70.9352
SN1249500,LUBLIN RADAWIEC,PL,238.0,22.3930555555556,51.2166666666667
SN17030,ONSØY - EVJA,NO,3.0,10.75,59.2648
SN60247,FV60 KJELLSTADLIA,NO,391.0,6.7288,62.028
SN210400,HEMAVAN,SE,485.0,15.0833333333333,65.8166666666667
SN12580,E6 RUDSHØGDA,NO,230.0,10.7955,60.9153
SN46610,SAUDA,NO,5.0,6.3499,59.6479
SN31080,TESSUNGDALEN - BAKKHUS,NO,762.0,8.7033,60.1293
SN87970,E6 ØSE,NO,280.0,17.6513,68.6207
SN81340,FV812 HOGNDALEN,NO,93.0,14.8187,67.2037
SN204990,SADJEM D,SE,355.0,21.2324,66.9615
SN99840,SVALBARD LUFTHAVN,SJ,28.0,15.5015,78.2453
SN25580,RV7 KVISLA,NO,667.0,8.3213,60.5825
SN76926,SLEIPNER A,NO,85.0,1.9091,58.3711
SN2761200,MOSKVA VDNH,RU,147.0,37.6167,55.8333
SN18645,OSLO - SOLLI PLASS,NO,25.0,10.7202,59.9142
SN1608400,PIACENZA S. DAMIANO,IT,138.0,9.72777777777778,44.9091666666667
SN250100,VADEROARNA,SE,22.0,11.0661111111111,58.5761111111111
SN1103600,WIEN/SCHWECHAT-FLUGHAFEN,AT,183.0,16.5813888888889,48.1175
SN213540,GARGNÄS D,SE,295.0,17.9505,65.3263
SN26872,DRAMMEN - ØREN SKOLE,NO,25.0,10.1705,59.7523
SN707000,REIMS-COURCY,FR,95.0,4.05,49.3
SN53070,VIK I SOGN III,NO,65.0,6.5813,61.0728
SN291900,LAPPEENRANTA HIEKKAPAKKA,FI,77.0,28.4727777777778,61.1980555555556
SN65370,SMØLA - MOLDSTAD,NO,30.0,8.063,63.4197
SN80102,SOLVÆR III,NO,10.0,12.611,66.3705
SN82650,VALLJORD,NO,3.0,15.5892,67.3605
SN47220,FV47 FERKINGSTAD,NO,35.0,5.1837,59.1895
SN296700,KOTKA HAAPASAARI,FI,4.0,27.1852777777778,60.2866666666667
SN18205,OSLO - LØREN,NO,88.0,10.7902,59.9287
SN4200,KJELLER,NO,108.0,11.0383,59.9708
SN69865,LEVANGER II,NO,3.0,11.28,63.7395
SN60310,FV63 KORSMYRA,NO,620.0,7.1848,62.1362
SN253680,ULRICEHAMN,SE,175.0,13.4083,57.8052
SN42160,LISTA FYR,NO,14.0,6.5675,58.109
SN34130,JOMFRULAND,NO,3.0,9.5745,58.8565
SN27500,FÆRDER FYR,NO,6.0,10.5242,59.0272
SN218600,LULEA-KALLAX (2186-0),SE,17.0,22.1280555555556,65.5444444444445
SN68860,TRONDHEIM - VOLL,NO,127.0,10.4538,63.4107
SN757700,MONTELIMAR,FR,73.0,4.73305555555556,44.5811111111111
SN19820,HURUM RADAR,NO,363.0,10.5645,59.6272
SN80730,FV17 TORSVIKA,NO,10.0,13.6675,66.8815
SN60400,NORDDAL,NO,28.0,7.2392,62.2477
SN89980,TAMOKDALEN,NO,230.0,19.6278,69.0935
SN1531000,GALATI,RO,69.0,28.0322222222222,45.4730555555556
SN61620,E136 BJORLI,NO,554.0,8.164,62.2702
SN27590,SANDEFJORD - SENTRUM,NO,20.0,10.2195,59.129
SN27285,E18 GULLI NORD,NO,30.0,10.3748,59.3183
SN77850,SUSENDAL,NO,498.0,14.2457,65.3675
SN100,PLASSEN,NO,333.0,12.5039,61.1349
SN60947,E136 ÅLESUND,NO,10.0,6.2038,62.4702
SN254290,SKARA,SE,115.0,13.4407,58.4072
SN7190900,"IQALUIT A, NU",CA,34.0,-68.55,63.75
SN49490,ULLENSVANG FORSØKSGARD,NO,12.0,6.6538,60.3185
SN619300,HAMMER ODDE FYR,DK,8.0,14.7719444444444,55.2980555555556
SN1705000,EDIRNE,TR,51.0,26.5666666666667,41.6666666666667
SN85440,KVITFOSSEN I VÅGAN,NO,3.0,14.6522,68.3267
SN58480,OLDEDALEN,NO,44.0,6.8088,61.694
SN50450,FANA - STEND,NO,54.0,5.3305,60.2728
SN41550,LJOSLAND - MONEN,NO,504.0,7.3501,58.7878
SN82560,KJERRINGØY - STRANDÅ,NO,20.0,14.8722,67.5437
SN76962,HULDRAFELTET,NO,,2.6503,60.8558
SN274100,JOMALA JOMALABY,FI,11.0,19.9863888888889,60.1783333333333
SN216115,MURJEK D,SE,260.0,20.9263,66.4771
SN36490,BØYLEFOSS,NO,63.0,8.717,58.5967
SN282300,MUONIO ALAMUONIO,FI,236.0,23.6847222222222,67.9583333333333
SN297400,VANTAA HELSINKI-VANTAA AIRPORT,FI,51.0,24.9566666666667,60.3266666666667
SN50540,BERGEN - FLORIDA,NO,12.0,5.3327,60.383
SN204900,GALLIVARE,SE,359.0,20.6458333333333,67.1422222222222
SN1048800,DRESDEN-KLOTZSCHE,DE,227.0,13.7561111111111,51.1291666666667
SN1655000,CAPO BELLAVISTA,IT,138.0,9.71305555555556,39.9308333333333
SN1239900,TERESPOL,PL,133.0,23.6219444444444,52.0786111111111
SN91245,LYNGSEIDET V,NO,53.0,20.212,69.5735
SN52415,FV57 SKODVIN,NO,50.0,5.2288,60.7018
SN725500,BOURGES,FR,161.0,2.35972222222222,47.0591666666667
SN77240,MOSJØEN - SMALMOÅSEN,NO,135.0,13.2088,65.7795
SN30380,GODAL,NO,475.0,9.5337,59.4558
SN18950,TRYVANNSHØGDA,NO,514.0,10.6693,59.9847
SN76935,SNORRE A,NO,114.0,2.1425,61.4489
SN221920,FROSTVIKEN D,SE,330.0,14.3169,64.3866
SN20520,LUNNER,NO,372.0,10.5753,60.295
SN65451,HITRA - SANDSTAD II,NO,13.0,9.1125,63.5187
SN57789,FV614 GRYTADALEN,NO,422.0,5.1948,61.6673
SN44780,FV316 TENGESDAL,NO,170.0,5.9622,58.8642
SN43380,EGERSUND II,NO,14.0,6.0055,58.4622
SN92860,ØKSFJORD - DEALLJA,NO,560.0,22.3413,70.1728
SN83960,E6 SKJELLESVIKSKARET,NO,252.0,16.3953,68.2565
SN25320,ÅL III,NO,720.0,8.5609,60.6391
SN701500,LILLE-LESQUIN,FR,48.0,3.0975,50.57
SN17640,FV155 RÅKEN,NO,130.0,11.0083,59.7397
SN607000,AARHUS LUFTHAVN,DK,25.0,10.6255555555556,56.3083333333333
SN47600,LITLEDAL,NO,83.0,6.0657,59.6642
SN1286000,SZOLNOK,HU,89.0,20.231111,47.117222
SN56850,VIKSDALEN I GAULAR,NO,243.0,6.1983,61.3262
SN30320,SKIEN - ELSTRØM,NO,13.0,9.5895,59.1992
SN52400,EIKANGER - MYR,NO,72.0,5.3742,60.6268
SN13390,E6 FRYA,NO,185.0,10.0747,61.5298
SN3019,FREDRIKSTAD BRANNSTASJON,NO,10.0,10.945,59.2105
SN88628,FV862 SENJAHOPEN,NO,20.0,17.511,69.4988
SN612000,ODENSE LUFTHAVN,DK,17.0,10.3305555555556,55.475
SN48120,STORD LUFTHAVN,NO,49.0,5.3407,59.7933
SN66620,RENNEBU - RAMSTAD,NO,223.0,9.8354,62.864
SN1647000,PANTELLERIA,IT,191.0,11.9711111111111,36.8138888888889
SN297600,KOTKA RANKKI,FI,11.0,26.9588888888889,60.3752777777778
SN58770,E39 LOTETUNNELEN,NO,71.0,6.026,61.9032
SN19760,ASKER - VARDÅSEN,NO,196.0,10.3812,59.82
SN1551100,LOM,BG,32.0,23.25,43.8166666666667
SN30410,SKIEN - KOLLMYR,NO,79.0,9.5572,59.213
SN227180,JÖRN D,SE,285.0,20.1072,65.0971
SN853800,SAGRES (8538-0),PT,25.0,-8.95,37.0
SN19428,BÆRUM - HØVIK,NO,10.0,10.5777,59.8925
SN92100,TROLL AIRFIELD,AQ,1235.0,2.4668,-71.9563
SN40,FV21 KROKSTAD,NO,211.0,11.82,59.8932
SN28750,FLESBERG,NO,183.0,9.3995,59.8685
SN30275,SKIEN - STALSBERG,NO,40.0,9.635,59.1988
SN1172300,BRNO/TURANY,CZ,237.0,16.6888888888889,49.1530555555556
SN79764,HJARTÅSEN,NO,251.0,14.954,66.4993
SN16620,E6 AVSJØEN,NO,930.0,9.4752,62.1807
SN69150,KVITHAMAR,NO,27.0,10.8795,63.4882
SN228490,HOLMÖN D,SE,15.0,20.8606,63.7918
SN266100,KOSTA (ORREFORS),SE,230.0,15.4722222222222,56.845
SN64700,INNERDALEN,NO,405.0,8.7753,62.722
SN15660,SKJÅK,NO,432.0,8.1706,61.9013
SN716800,TROYES-BARBEREY,FR,119.0,4.02,48.3247222222222
SN85380,SKROVA FYR,NO,14.0,14.6485,68.1535
SN1523000,DEVA,RO,240.0,22.8988888888889,45.865
SN76920,EKOFISK,NO,58.0,3.2243,56.5433
SN9380,SNØHEIM,NO,1475.0,9.352,62.2958
SN68863,TRONDHEIM - VOLL PLU,NO,127.0,10.4535,63.4107
SN53010,RV13 VIKAFJELL,NO,910.0,6.5055,60.9692
SN215400,VIDSEL,SE,182.0,20.1541666666667,65.8677777777778
SN24210,SOKNA II,NO,140.0,9.9267,60.238
SN1049000,DOBERLUG-KIRCHHAIN,DE,97.0,13.5747222222222,51.645
SN325700,LEEMING,GB,40.0,-1.53305555555556,54.2969444444444
SN85470,KONGSMARKA,NO,29.0,14.4793,68.2417
SN50480,BERGEN - SANDSLI,NO,37.0,5.2777,60.2913
SN91490,E8 BOSSOVARRI,NO,545.0,20.7455,69.1185
SN49080,ØVRE KROSSDALEN,NO,342.0,6.3857,60.2795
SN1604500,UDINE/RIVOLTO,IT,51.0,13.059,45.9806
SN256500,MALILLA,SE,96.0,15.8011111111111,57.3844444444444
SN16611,E6 FOKSTUGU,NO,980.0,9.28625,62.1125
SN18235,OSLO - FURUSET,NO,160.0,10.8972,59.942
SN1960,E18 ØRJE VEST,NO,208.0,11.6107,59.51
SN39570,FV42 UNDELAND,NO,411.0,7.91,58.5773
SN58070,SANDANE,NO,51.0,6.1835,61.7873
SN99735,EDGEØYA - KAPP HEUGLIN,SJ,14.0,22.8225,78.2508
SN51440,EVANGER,NO,17.0,6.1105,60.647
SN50040,FV7 ÅLVIK AUST,NO,93.0,6.4865,60.4437
SN1555200,VARNA,BG,40.0,27.95,43.2
SN202400,STORA SJOFALLET,SE,425.0,18.2944444444444,67.4963888888889
SN84770,E6 HÅLOGALANDSBRUA,NO,44.0,17.482,68.4683
SN99843,PLATÅBERGET III,SJ,450.0,15.378,78.2278
SN57810,SVELGEN II,NO,16.0,5.2983,61.7707
SN65310,VEIHOLMEN,NO,4.0,7.9482,63.5176
SN52310,MODALEN III,NO,125.0,5.9758,60.859
SN223600,HALLHAXASEN,SE,375.0,15.3311111111111,63.7694444444444
SN243500,BORLANGE,SE,145.0,15.5008333333333,60.4291666666667
SN47232,ÅKREHAMN AMFI,NO,18.0,5.1927,59.2643
SN40880,HOVDEN - LUNDANE,NO,841.0,7.3897,59.5766
SN32850,KVITESEID - MOEN,NO,76.0,8.473,59.4058
SN19527,SKRIVERBERGET,NO,281.0,10.5315,59.96
SN217320,BRÄNNBERG D,SE,95.0,21.26,65.7938
SN53530,MIDTSTOVA,NO,1162.0,7.2755,60.6563
SN218190,KYPÄSJÄRVI D,SE,80.0,23.2295,66.1937
SN246900,TULLINGE,SE,45.0,17.9127777777778,59.1788888888889
SN68262,KLÆBU II,NO,143.0,10.4657,63.3064
SN79791,E6 SALTFJELLET ,NO,676.0,15.3235,66.5548
SN1536000,SULINA,RO,13.0,29.7269444444444,45.1622222222222
SN39220,MESTAD I ODDERNES,NO,151.0,7.89,58.2153
SN1623000,PESCARA,IT,15.0,14.1872222222222,42.4372222222222
SN232590,YTTERHOGDAL,SE,260.0,14.9508,62.1825
SN59586,FV61 HAREIDSDALEN,NO,132.0,5.9143,62.3468
SN293500,JYVASKYLA AIRPORT,FI,139.0,25.6708333333333,62.3975
SN1547000,ROSIORII DE VEDE,RO,102.0,24.9786111111111,44.1072222222222
SN226310,BALSJÖ D,SE,200.0,19.0703,63.9206
SN397600,BELMULLET,IE,9.0,-10.0069444444444,54.2275
SN18280,RV4 GJELLERÅSEN,NO,225.0,10.9287,59.9865
SN1664800,LARISSA (AIRPORT),GR,71.0,22.4602777777778,39.6461111111111
SN59667,VOLDA - BRATTEBERG SKOLE,NO,133.0,6.1122,62.1497
SN224300,JUNSELE,SE,219.0,16.95,63.6838888888889
SN220900,SYLARNA,SE,1030.0,12.2777777777778,63.0447222222222
SN10600,AURSUND,NO,685.0,11.4534,62.6737
SN51610,E16 VOSS NORD,NO,81.0,6.4355,60.6438
SN248210,AVESTA,SE,100.0,16.1747,60.1419
SN21680,VEST-TORPA II,NO,542.0,10.0358,60.9345
SN2625800,PSKOV,RU,44.0,28.3333333333333,57.8166666666667
SN60860,E39 SOLAVÅGEN FERGEKAI,NO,2.0,6.3272,62.4135
SN3358700,Uman,UA,216.0,30.2327777777778,48.7669444444444
SN30293,SKIEN - GIMSØY,NO,13.0,9.6087,59.1975
SN647600,ST-HUBERT,BE,563.0,5.40388888888889,50.0388888888889
SN1281200,SZOMBATHELY,HU,200.0,16.6477778,47.1983333
SN95590,BØRSELV II,NO,23.0,25.5703,70.3133
SN41795,E39 OSESTAD,NO,150.0,7.2092,58.111
SN32240,BØ,NO,105.0,9.0287,59.4175
SN73250,SØRLI,NO,370.0,13.765,64.2432
SN396900,DUBLIN AIRPORT,IE,68.0,-6.25,53.4333333333333
SN61820,ERESFJORD,NO,14.0,8.105,62.663
SN22990,E16 KALPLASSEN,NO,425.0,9.3343,60.9532
SN275000,HANKO TVARMINNE,FI,3.0,23.2483333333333,59.8438888888889
SN34115,E18 SPRANGFOSS BRU,NO,77.0,9.4837,58.9675
SN94280,HAMMERFEST LUFTHAVN,NO,81.0,23.6772,70.6807
SN19455,BÆRUM - HAMANGSKOGEN,NO,19.0,10.51535,59.89285
SN231980,ÅSARNA D,SE,450.0,14.3556,62.66
SN240880,TÖCKSFORS D,SE,125.0,11.8397,59.5468
SN22730,HEDAL I VALDRES II,NO,474.0,9.7238,60.6197
SN30248,BREVIK,NO,3.0,9.7013,59.0537
SN27162,ÅSGÅRDSTRAND,NO,61.0,10.46,59.3563
SN857900,LISBOA/GAGO COUTINHO,PT,104.0,-9.1275,38.7661111111111
SN15050,RV15 LOM,NO,379.0,8.5845,61.8412
SN5495,RV2 SIGERNESSJØEN,NO,185.0,12.063,60.102
SN92650,NUVSVÅG,NO,27.0,22.0705,70.2368
SN25110,HEMSEDAL II,NO,604.0,8.593,60.8548
SN4780,GARDERMOEN,NO,202.0,11.0802,60.2065
SN1242400,WROCLAW II,PL,121.0,16.9,51.1033333333333
SN68238,E6 HEIMDAL,NO,140.0,10.3695,63.3478
SN60890,BRUSDALSVATN II,NO,33.0,6.4013,62.4654
SN93000,HASVIK - SLUSKFJELLET,NO,438.0,22.4428,70.607
SN57660,EIMHJELLEN,NO,176.0,5.8157,61.6407
SN52860,TAKLE,NO,38.0,5.3813,61.0272
SN10800,SØLENDET,NO,747.0,11.8153,62.6793
SN3120,ROLVSØY - ELVENESVEIEN,NO,9.0,11.0207,59.2597
SN235500,KUGGOREN,SE,9.0,17.5252777777778,61.7033333333333
SN25541,BAKKO I HOL II,NO,992.0,8.00375,60.68108
SN34100,E18 ØDEGÅRDENS VERK,NO,70.0,9.5368,58.9732
SN61410,MANNEN,NO,1294.0,7.7703,62.4555
SN81310,FV17 ÅSELIBRUA,NO,8.0,14.6315,67.1978
SN252600,GOTEBORG-LANDVETTER,SE,154.0,12.2919444444444,57.6761111111111
SN19718,ASKER BRANNSTASJON II,NO,115.0,10.439,59.8303
SN41825,LYNGDAL,NO,6.0,7.0452,58.134
SN54780,ØVRE ÅRDAL,NO,28.0,7.8177126,61.310226
SN90560,KVALØYSLETTA,NO,63.0,18.8772,69.6988
SN19790,ASKER − BØDALEN,NO,125.0,10.4523,59.7597
SN48500,ROSENDAL,NO,75.0,6.0263667,59.9913349
SN219790,ÖVERTORNEÅ,SE,75.0,23.622,66.3862
SN267000,KALMAR,SE,6.0,16.3,56.6833333333333
SN67780,ÅLEN,NO,397.0,11.2058,62.8523
SN19458,NADDERUD,NO,71.0,10.5878,59.9248
SN12110,STANGE - RÅDHUSET,NO,220.0,11.1903,60.7155
SN47172,KARMSUND DYREHOSPITAL,NO,45.0,5.3173,59.3838
SN49720,TUSSAFOTEN,NO,1110.0,7.156,60.439
SN4735,GARDERMOEN - SØRØST,NO,204.0,11.1105,60.1705
SN93700,KAUTOKEINO,NO,307.0,23.0335,68.9968
SN80870,FV472 SANDHORNØYA,NO,62.0,14.2075,67.0837
SN208100,KARESUANDO,SE,330.0,22.4436111111111,68.4419444444444
SN4807,ULLENSAKER − BORGEN,NO,180.0,11.2144,60.0948
SN6700,RV3 SVINGEN,NO,200.0,11.4902,60.9573
SN94050,ØVRE LEIRBOTN,NO,190.0,23.6168,70.1282
SN39160,KRISTIANSAND - HOLDALSNUTEN,NO,124.0,8.019,58.1717
SN88640,HUSØY,NO,10.0,17.6715,69.5457
SN27730,E18 FOKSERØD,NO,100.0,10.2077,59.1828
SN52555,FV57 MONGSTAD SØR,NO,25.0,5.0218,60.7928
SN224500,VILHELMINA,SE,348.0,16.8422222222222,64.5811111111111
SN48069,FV542 BØMLABRUA,NO,20.0,5.3795,59.7372
SN12666,E6 VINGNES,NO,130.0,10.442,61.108
SN1711600,BURSA,TR,100.0,29.013347,40.230827
SN28923,FV40 VEGGLI,NO,227.0,9.1667,60.0393
SN13420,VENABU,NO,930.0,10.1082,61.6513
SN27470,TORP,NO,88.0,10.2553,59.1845
SN1715000,BALIKESİR HAVALİMANI,TR,103.0,27.9166666667,39.6166666667
SN75550,SKLINNA FYR,NO,23.0,10.9965,65.2023
SN68175,E6 MOHOLTLIA,NO,120.0,10.4388,63.4078
SN62200,E39 FURSETFJELLET,NO,210.0,7.6048,62.8275
SN60800,ØRSKOG,NO,5.0,6.8167,62.4775
SN280700,INARI IVALO AIRPORT,FI,147.0,27.4138888888889,68.6077777777778
SN90721,REBBENESØY - GRÅHAUGEN,NO,174.0,18.7053,69.9997
SN63420,SUNNDALSØRA III,NO,6.0,8.5473,62.6785
SN43090,JØSSINGFJORD,NO,136.0,6.3582,58.325
SN16560,DOMBÅS - NORDIGARD,NO,638.0,9.1147,62.07165
SN7660,ÅKRESTRØMMEN,NO,260.0,11.2042,61.696
SN302600,STORNOWAY AIRPORT,GB,15.0,-6.31888888888889,58.2133333333333
SN19530,AUREVANN,NO,277.0,10.4601,59.9967
SN3356200,Vinnytsia,UA,298.0,28.6041666666667,49.2477777777778
SN55740,ANESTØLEN,NO,443.0,6.9077,61.3648
SN725,FV221 VALLDALSFJELL,NO,826.0,12.132,62.0818
SN1246500,LODZ-LUBLINEK,PL,180.0,19.3994444444,51.7233333333
SN8880,ALVDAL,NO,478.0,10.6268,62.1093
SN241080,LETAFORS D,SE,335.0,12.6989,60.7397
SN30305,FV32 KIKUT,NO,280.0,9.6637,59.2485
SN3365800,Chernivtsi,UA,246.0,25.9725,48.2663888888889
SN34800,TØRDAL - SUVDØLA,NO,235.0,8.7742,59.1482
SN99720,HOPEN,SJ,6.0,25.0133,76.5097
SN667000,ZUERICH / KLOTEN,CH,426.0,8.53583333333333,47.4797222222222
SN1502000,BOTOSANI,RO,161.0,26.6455555555556,47.7355555555556
SN6440,VERMUNDSJØEN,NO,276.0,12.369,60.6925
SN47450,STRAUMØY,NO,36.0,5.4335,59.6532
SN27120,HORTEN - NYKIRKE,NO,70.0,10.3847,59.4283
SN261500,FALSTERBO A,SE,2.0,12.8166666666667,55.3836111111111
SN50070,KVAMSØY,NO,49.0,6.2805,60.3632
SN17870,ÅS - RUSTADSKOGEN,NO,120.0,10.8107,59.6703
SN43350,EIGERØYA,NO,49.0,5.8718,58.4352
SN99460,PASVIK - SVANVIK,NO,27.0,30.041,69.4552
SN91430,RIHPOJAVRI,NO,502.0,20.5795,69.2235
SN214990,LÅNGTRÄSK D,SE,305.0,19.249,65.1953
SN294400,TAMPERE-PIRKKALA AIRPORT,FI,122.0,23.6175,61.4202777777778
SN63725,E6 OPPDAL,NO,555.0,9.7215,62.6007
SN24240,RV7 RALLERUD,NO,212.0,9.8453,60.2588
SN9580,TYNSET - HANSMOEN,NO,482.0,10.732,62.2695
SN56790,E39 SANDE BRU,NO,62.0,5.7774,61.3229
SN60190,ROALDSHORNET,NO,1050.0,6.849,62.3065
SN299200,LOVIISA ORRENGRUND,FI,5.0,26.4444444444444,60.275
SN201900,KATTERJAKK A,SE,514.0,18.1680555555556,68.4202777777778
SN262810,KARLSHAMN,SE,50.0,14.8517,56.1813
SN15950,RV15 BREIDALEN,NO,930.0,7.3928,62.0105
SN44660,STAVANGER - HUNDVÅG,NO,5.0,5.7193,58.9987
SN7920,FINSTAD - NYHUS,NO,525.0,11.0355,62.1083
SN99370,KIRKENES LUFTHAVN,NO,89.0,29.8977,69.7255
SN27075,E18 GRELLAND,NO,90.0,10.2078,59.511
SN257400,NORRKOPING,SE,41.0,16.1469444444444,58.5827777777778
SN84710,NARVIK - STASJONSVN.,NO,50.0,17.4667,68.45
SN30350,SKIEN - JØNNEVALL,NO,45.0,9.5667,59.2695
SN91726,ARNØYA - LANGFJORDEN,NO,12.0,20.56,70.0618
SN80610,MYKEN,NO,17.0,12.486,66.7628
SN44552,TANANGER,NO,5.0,5.6012,58.9319
SN99765,AKSELØYA,SJ,20.0,14.7578,77.6873
SN72580,NAMSOS LUFTHAVN,NO,2.0,11.5705,64.4708
SN91080,YTRE HOLMEBUKT,NO,25.0,19.713,69.5
SN17251,MOSS BRANNSTASJON,NO,32.0,10.6835,59.4425
SN84701,NARVIK SENTRUM,NO,31.0,17.4212,68.4372
SN1628000,PONZA,IT,184.0,12.9569444444444,40.9119444444444
SN30242,FV301 BERG KIRKE,NO,10.0,9.9232,58.9928
SN77425,MAJAVATN V,NO,319.0,13.3667,65.1662
SN91502,NORDNESFJELLET - JETTANII,NO,627.0,20.4108,69.5543
SN51990,MYRKDALEN-VETLEBOTN,NO,700.0,6.4733,60.8655
SN88200,SENJA - LAUKHELLA,NO,9.0,17.9014,69.2349
SN8970,EINUNNA KRAFTVERK,NO,746.0,10.3418,62.2317
SN17780,BLEKSLITJERN,NO,104.0,10.6308,59.8095
SN4825,FV170 KOMPVEIEN,NO,145.0,11.3015,59.942
SN56960,HAUKEDAL,NO,311.0,6.3758,61.4202
SN45530,LIARVATN,NO,300.0,6.1212,59.0512
SN11500,ØSTRE TOTEN - APELSVOLL,NO,264.0,10.8695,60.7002
SN30000,LARVIK,NO,28.0,10.0667,59.0572
SN645100,BRUSSELS NATIONAL (AIRPORT),BE,56.0,4.52722222222222,50.8963888888889
SN42650,FLEKKEFJORD,NO,5.0,6.6498,58.2839873
SN73630,E6 FJERDINGEN,NO,117.0,12.6053,64.6237
SN256700,LANDSORT,SE,18.0,17.8719444444444,58.7436111111111
SN80000,FV810 BUSTNESLIA,NO,108.0,13.9015,66.2788
SN288900,SUOMUSSALMI PESIO,FI,223.0,28.7466666666667,64.9313888888889
SN2686300,MOGILEV,BY,,30.0961111111111,53.9555555555556
SN30278,SKIEN - KLYVE,NO,62.0,9.6177,59.1465
SN1702200,ZONGULDAK,TR,135.0,31.7780555555556,41.4491666666667
SN263100,LUND,SE,25.0,13.229,55.693
SN11440,FV33 FEIRING,NO,140.0,11.147,60.5878
SN64320,KRISTIANSUND ELVERK,NO,4.0,7.7303,63.1258
SN98978,REINHAUGEN,NO,470.0,28.9648,70.3357
SN1233000,POZNAN-LAWICA,PL,88.0,16.8347222222,52.4166666667
SN38140,LANDVIK,NO,6.0,8.5225,58.34
SN395300,VALENTIA OBSERVATORY,IE,24.0,-10.2432,51.93805
SN50351,SAMNANGER II,NO,367.0,5.8938,60.464
SN15262,JUVFLYE - MIMISBRUNNR KLIMAPARK,NO,1844.0,8.3685,61.674
SN17810,NESODDEN - TANGENÅSEN,NO,98.0,10.6622,59.8553
SN250010,ED D,SE,164.0,11.7723,58.9102
SN58165,E39 KLAKEGG,NO,224.0,6.5288,61.6093
SN1447400,DUBROVNIK/CILIPI,HR,157.0,18.27,42.5627777777778
SN50360,FV7 GULLBOTN,NO,250.0,5.6502,60.3982
SN3339300,Lviv,UA,323.0,23.965,49.8075
SN26450,FV211 HAGLEBU,NO,890.0,9.186,60.3667
SN17550,E6 SONSVEIEN,NO,25.0,10.7252,59.5177
SN746000,CLERMONT-FERRAND,FR,333.0,3.14944444444444,45.7869444444444
SN1178200,OSTRAVA/MOSNOV,CZ,257.0,18.1127777777778,49.6919444444444
SN231600,SARNA,SE,425.0,13.1833333333333,61.7
SN259000,VISBY,SE,51.0,18.35,57.6666666666667
SN86310,GIMSØY - OSAN,NO,5.0,14.1777,68.327
SN50539,BERGEN - FLORIDA UIB,NO,46.0,5.332,60.3837
SN69380,MERÅKER - VARDETUN,NO,169.0,11.7277,63.4115
SN39450,RV9 DALEHEFTE,NO,280.0,7.8125,58.3085
SN60875,BRUSDALEN,NO,69.0,6.4797,62.4848
SN800100,LA CORUNA,ES,58.0,-8.42138888888889,43.3658333333333
SN15890,GROTLI III,NO,872.0,7.6637,62.0162
SN1401500,LJUBLJANA/BEZIGRAD,SI,299.0,14.5122222222222,46.0655555555556
SN4460,HAKADAL JERNBANESTASJON,NO,170.0,10.829,60.1173
SN66150,ORKDAL - THAMSHAMN,NO,4.0,9.8495,63.3153
SN180,TRYSIL VEGSTASJON,NO,360.0,12.2718,61.2943
SN298700,PORVOO KALLBADAGRUND,FI,,25.5986111111111,59.9852777777778
SN78370,BJERKA - VALLA,NO,20.0,13.8067,66.1415
SN91020,BREIVIKEIDET,NO,30.0,19.5103,69.6367
SN61090,TRESFJORDEN,NO,2.0,7.1307,62.5247
SN99902,NY-ÅLESUND - RABBEN FLYPLASS,SJ,41.0,11.8837,78.9273
SN92895,E6 LANGFJORDBOTN,NO,40.0,22.2573,70.0398
SN226100,LYCKSELE,SE,210.0,18.7169444444444,64.5494444444444
SN20932,VESTFJORDEN,NO,0.0,15.4733,68.2252
SN31250,STRENGEN,NO,1093.0,8.3755,59.9958
SN99938,KVITØYA,SJ,10.0,31.4585,80.1035
SN58560,STRYN,NO,8.0,6.7183,61.9037
SN18420,OSLO - DISEN,NO,136.0,10.7903,59.946
SN11790,FV33 VARDALSÅSEN,NO,505.0,10.3998,60.791
SN39100,OKSØY FYR,NO,9.0,8.0532,58.0732
SN2640600,LIEPAJA,LV,4.0,21.0205555555556,56.4752777777778
SN90760,FAKKEN,NO,57.0,20.11451,70.10426
SN4110,LØRENSKOG - HANEBORG,NO,231.0,10.9762,59.946
SN226190,RUSKSELE D,SE,225.0,18.8886,64.8166
SN18160,NORDSTRAND,NO,118.0,10.7912,59.873
SN55770,NJØS,NO,45.0,6.8608,61.1792
SN3334500,Kyiv,UA,167.0,30.5355555555556,50.3916666666667
SN76450,VEGA - VALLSJØ,NO,4.0,11.8562,65.7017
SN30810,TINNOSDAMMEN,NO,191.0,9.0245,59.7238
SN68420,AUNET,NO,302.0,11.5669,63.0556
SN1257000,KIELCE-SUKOW,PL,260.0,20.6922222222222,50.8102777777778
SN80200,LURØY,NO,115.0,13.1848,66.3892
SN741200,COGNAC,FR,31.0,-0.315833333333333,45.665
SN33430,E134 GRØNLIHEIA,NO,692.0,8.1075,59.5315
SN99884,KLAUVA,SJ,480.0,18.2248,78.3002
SN54110,LÆRDAL IV,NO,2.0,7.5025,61.1033
SN81420,FV813 BEIARFJELLET,NO,600.0,14.8982,67.0042
SN19461,BRUNKOLLEN,NO,370.0,10.5472,59.9682
SN87315,RV85 LANGVASSBUKT,NO,30.0,15.7593,68.6178
SN66760,OPPDAL - MAURHAUGEN,NO,660.0,9.8203,62.6597
SN46430,RØLDALSFJELLET,NO,1010.0,6.733,59.8315
SN39800,RV9 LONGERAK,NO,214.0,7.8482,58.7467
SN212400,ARJEPLOG,SE,431.0,17.8397222222222,66.0513888888889
SN19470,MUREN,NO,262.0,10.5357,59.9603
SN98090,BERLEVÅG LUFTHAVN,NO,13.0,29.0348,70.8708
SN47498,ETNE II,NO,8.0,5.9538,59.6625
SN330200,VALLEY,GB,11.0,-4.53638888888889,53.2525
SN225490,YTTERRISSJÖ D,SE,370.0,17.777,64.0302
SN659000,LUXEMBOURG/LUXEMBOURG,LU,376.0,6.21666666666667,49.6166666666667
SN1520000,ARAD,RO,117.0,21.3536111111111,46.1336111111111
SN66850,KVIKNE I ØSTERDAL,NO,549.0,10.271,62.5962
SN90491,TROMSØ LH - STORKJØLEN,NO,790.0,18.7875,69.7333
SN5680,RV2 FØTTASKJÆRET,NO,170.0,12.0435,60.3718
SN61790,FV64 ISFJORDEN,NO,27.0,7.783,62.571
SN93900,SIHCCAJAVRI,NO,382.0,23.5387,68.7553
SN293900,ILOMANTSI MEKRIJARVI,FI,155.0,30.9752777777778,62.7697222222222
SN58910,RV15 MARKANE,NO,220.0,6.5835,61.912
SN76961,SLEIPNER B,NO,,1.7178,58.4178
SN47480,E134 VATS,NO,50.0,5.7025,59.5698
SN12050,E6 VIKSELV,NO,160.0,11.2997,60.6215
SN82210,RV80 BERTNES,NO,30.0,14.5932,67.2878
SN33950,HAUKELISETER TESTFELT,NO,990.0,7.2143,59.8118
SN91460,E8 GARDEBORGBAKKEN,NO,408.0,20.7503,69.1818
SN27320,E18 HEM NORD,NO,55.0,10.3825,59.3535
SN19945,LIER - SJÅSTAD,NO,125.0,10.2177,59.8628
SN267900,HOBURG A,SE,34.0,18.1505555555556,56.9211111111111
SN27015,DRAMMEN - JARLSBERGVEIEN,NO,230.0,10.1458,59.7192
SN5330,FV24 STORSJØEN,NO,135.0,11.5898,60.3582
SN42940,SIRDAL - SINNES,NO,560.0,6.9097,58.923
SN91675,E6 DJUPVIK,NO,55.0,20.506,69.7537
SN228280,KALVTRÄSK D,SE,265.0,19.8082,64.6703
SN7950,RENA FLYPLASS,NO,255.0,11.3747,61.1847
SN1230,HALDEN,NO,3.0,11.388,59.1223
SN57340,JØLSTER - KVAMSFJELLET,NO,980.0,6.096,61.4573
SN225400,ASELE,SE,307.0,17.3188888888889,64.1661111111111
SN764500,NIMES-COURBESSAC,FR,60.0,4.40638888888889,43.8569444444444
SN1165900,PRIBYSLAV,CZ,533.0,15.7625,49.5827777777778
SN91729,ARNØYA - TROLLTINDEN,NO,850.0,20.431,70.075
SN9870,BLANKTJERNMOEN I KVIKNE,NO,692.0,10.428,62.4343
SN26970,FV319 SAGBUKTA,NO,7.0,10.3802,59.6625
SN232150,ULVSJÖ,SE,585.0,14.1847,61.6022
SN85640,E10 KÅKERN BRU,NO,23.0,13.1803,68.0185
SN1011300,NORDERNEY,DE,11.0,7.15194444444444,53.7122222222222
SN76937,TROLL C,NO,117.0,3.6097,60.8858
SN1636000,S. MARIA DI LEUCA,IT,104.0,18.3422222222222,39.8113888888889
SN27870,FV40 RIENLIA,NO,52.0,9.9268,59.2737
SN2240800,KALEVALA,RU,118.0,31.15,65.2166666666667
SN18315,OSLO - SOFIENBERG,NO,37.0,10.7623,59.919
SN20926,HJELMSØYBANKEN,NO,0.0,20.15,72.49
SN77350,RV76 TOSENFJELLET,NO,402.0,13.1427,65.3125
SN69661,E39 KVIVSVEIEN,NO,80.0,6.4187,62.0385
SN32060,GVARV - NES,NO,93.0,9.2128,59.3822
SN62295,MOLDE - HINDALSRØRA,NO,258.0,7.2088,62.756
SN2200400,NIKELʼ,JO,105.0,30.2088888889,69.4102777778
SN50865,GULLFJELLET,NO,345.0,5.542,60.3828
SN820200,SALAMANCA/MATACAN,ES,790.0,-5.49833333333333,40.9594444444444
SN34680,FV38 BOSTRAK,NO,100.0,8.887,59.1062
SN207280,VITTANGI,SE,250.0,21.6335,67.6943
SN43490,E39 UALAND,NO,213.0,6.3257,58.5337
SN84070,BJØRKÅSEN,NO,53.0,16.7883,68.3302
SN19930,GLITRE,NO,375.0,10.0563,59.86835
SN240700,MALUNG A,SE,303.0,13.7072222222222,60.6763888888889
SN68010,TRONDHEIM - HØVRINGEN,NO,44.0,10.3364,63.4465
SN64242,RV70 RENSVIK,NO,40.0,7.7978,63.0857
SN88690,HEKKINGEN FYR,NO,33.0,17.8312,69.6005
SN49860,RV7 DYRANUT,NO,1243.0,7.4945,60.3693
SN751000,BORDEAUX MERIGNAC,FR,51.0,-0.691388888888889,44.8305555555556
SN99340,ØVRE NEIDEN,NO,85.0,29.1533,69.679
SN236600,SUNDSVALL HARNOSAND (2366-0),SE,5.0,17.4494444444444,62.5227777777778
SN82410,HELLIGVÆR II,NO,24.0,13.8958,67.4048
SN70980,E6 KVAM,NO,100.0,11.7635,64.1492
SN83280,FV835 ENGELØYBRUA,NO,20.0,15.1827,67.9028
SN76928,HEIDRUN,NO,68.0,7.3156,65.32285
SN6840,RV3 RENA,NO,230.0,11.3633,61.1215
SN1512000,CLUJ-NAPOCA,RO,410.0,23.5713888888889,46.7777777777778
SN210,TRYSIL - NORDRE KANKEN,NO,1020.0,12.1887,61.3188
SN62950,E39 GJEMNESSUNDBRUA,NO,43.0,7.7793,62.9712
SN56320,LAVIK,NO,26.0,5.5413,61.1124
SN88430,FV7862 KAPERSKARET,NO,363.0,17.2905,69.2972
SN65130,TUSTNA,NO,32.0,8.0403,63.2058
SN1225000,TORUN,PL,69.0,18.5952777777778,53.0422222222222
SN69625,E6 ÅSEN,NO,30.0,11.0718,63.622
SN396200,SHANNON AIRPORT,IE,14.0,-8.91666666666667,52.7
SN90305,E8 LAVANGSDALEN,NO,69.0,19.2608,69.4338
SN6580,RV2 SORMA,NO,160.0,11.7625,60.7525
SN44190,TIME - LYE,NO,92.0,5.7262,58.7345
SN33890,VÅGSLI,NO,821.0,7.3653,59.7662
SN64870,TÅGDALEN,NO,410.0,9.0878,63.0493
SN264870,TINGSRYD-DEGERHAGA,SE,176.0,14.9019,56.5376
SN212600,GUNNARN,SE,275.0,17.6994444444444,65.0094444444444
SN41005,E39 SUVATNET,NO,80.0,7.6202,58.086
SN120,FV569 FLERMOBERGET,NO,580.0,12.6982,61.2177
SN98640,FINNESVATNET,NO,72.0,30.368,70.2467
SN22200,E16 HALLINGBY,NO,159.0,10.1863,60.2733
SN98550,VARDØ RADIO,NO,10.0,31.0962,70.3707
SN222200,GADDEDE,SE,328.0,14.1666666666667,64.5
SN2642200,RIGA LU,LV,6.0,24.1161111111111,56.9505555555556
SN24820,RV7 NESBYEN,NO,159.0,9.1548,60.5325
SN93140,ALTA LUFTHAVN,NO,3.0,23.3582,69.9775
SN10070,FV30 OSMOEN,NO,598.0,11.1723,62.5003
SN94235,RV94 SKJÅHOLMEN,NO,25.0,23.7303,70.5458
SN20540,GRAN,NO,245.0,10.5592,60.3558
SN76964,NJORD A,NO,,7.2015,64.271
SN263300,"LUND, SOL",SE,86.0,13.2122222222222,55.7138888888889
SN290700,KALAJOKI ULKOKALLA,FI,3.0,23.4463888888889,64.3308333333333
SN92880,ØKSFJORD - PARKVEIEN,NO,10.0,22.3488,70.2396
SN2830,FV115 HEMNES,NO,141.0,11.4178,59.7267
SN1014700,HAMBURG-FUHLSBUETTEL,DE,11.0,9.98805555555555,53.6330555555556
SN86600,STOKMARKNES LH - SKAGEN,NO,3.0,15.0293,68.58
SN15480,SKJÅK II,NO,374.0,8.4672,61.8777
SN286600,PUDASJARVI AIRFIELD,FI,120.0,26.9630555555556,65.4138888888889
SN18405,OSLO - SANDAKER,NO,110.0,10.7727,59.9398
SN44567,E39 FINNESTAD,NO,35.0,5.6545,58.9908
SN46460,RØLDAL KRAFTVERK,NO,390.0,6.818,59.8222
SN17005,ONSØY - ØYENKILEN,NO,5.0,10.8487,59.1735
SN211030,AVASJÖ-BORGAFJÄLL D,SE,530.0,15.0918,64.8366
SN67140,SKJETLEIN,NO,48.0,10.2973,63.3403
SN59110,KRÅKENES,NO,72.0,4.9865,62.034
SN20280,HØNEFOSS - HVERVEN,NO,126.0,10.2662,60.1403
SN52390,E39 OSTEREIDET,NO,100.0,5.4722,60.626
SN1662700,ALEXANDROUPOLI (AIRPORT),GR,4.0,25.9469444444444,40.8572222222222
SN99600,FARKOLLEN,NO,321.0,28.9937,69.8043
SN218800,RODKALLEN,SE,2.0,22.3755555555556,65.3130555555556
SN17400,FV120 RØDSUND,NO,30.0,10.79,59.4765
SN44800,SVILAND,NO,230.0,5.9202,58.8185
SN12600,VEA,NO,161.0,10.67905,60.95295
SN20361,E16 EGGEMOEN,NO,190.0,10.3113,60.2052
SN224515,HÖGLAND D,SE,330.0,15.8792,64.5812
SN18970,OSLO - LYSAKER,NO,23.0,10.6348,59.9185
SN71850,HALTEN FYR,NO,16.0,9.4052,64.1727
SN265220,KRISTIANSTAD,SE,10.0,14.2896,56.0133
SN18701,OSLO - BLINDERN PLU,NO,94.0,10.7202,59.9423
SN53700,AURLAND,NO,15.0,7.201,60.9027
SN72200,FV17 RØDHAMMER,NO,38.0,11.2813,64.3398
SN50506,E39 FJØSANGERVEIEN,NO,15.0,5.3383,60.353
SN38735,RV41 HYNNEKLEIV,NO,186.0,8.4042,58.6042
SN226130,GRANÖ D,SE,185.0,19.3127,64.2517
SN18450,MARIDALSOSET,NO,173.0,10.7894,59.9719
SN1671600,ATHINAI HELLINIKON,GR,43.0,23.7416666666667,37.8897222222222
SN17050,RÅDE - TOMB,NO,12.0,10.8145,59.3188
SN57630,RV5 SVARTHUMLE,NO,190.0,5.6658,61.5647
SN249600,SVENSKA HOGARNA,SE,10.0,19.5058333333333,59.4444444444444
SN19670,ASKER - NESBRU,NO,30.0,10.4966,59.86635
SN226300,FREDRIKA,SE,327.0,18.3655555555556,64.0755555555556
SN1293500,SIOFOK,HU,107.0,18.040833,46.910833
SN71805,FV715 MOMYR,NO,265.0,10.5248,64.0972
SN4920,ÅRNES,NO,160.0,11.3933,60.1268
SN23420,FAGERNES,NO,358.0,9.224,60.9785
SN61030,PV98851 SKJELTENE,NO,2.0,6.2653,62.5873
SN99869,ADVENTDALEN - LOESS TERRACE,SJ,,15.8293,78.2017
SN1649000,LAMPEDUSA,IT,21.0,12.6183333333333,35.4980555555556
SN287300,HAILUOTO MARJANIEMI,FI,7.0,24.5611111111111,65.0397222222222
SN94800,REPVÅG,NO,3.0,25.6161,70.7731
SN55970,FV55 KONGSNES,NO,20.0,6.2087,61.1645
SN1534600,RAMNICU VALCEA,RO,237.0,24.3627777777778,45.0888888888889
SN39040,KJEVIK,NO,12.0,8.0767,58.2
SN99950,JAN MAYEN,SJ,10.0,-8.669,70.9394
SN2480,FV21 TANGEN,NO,171.0,11.7178,59.8438
SN837300,IBIZA/ES CODOLA,ES,6.0,1.38444444444444,38.8763888888889
SN828400,VALENCIA/AEROPUERTO,ES,60.0,-0.474722222222222,39.485
SN1672300,SAMOS (AIRPORT),GR,6.0,26.9161,37.6908
SN87120,ANDØYA - TROLLTINDEN,NO,436.0,16.003,69.2413
SN20953,VALEMON,NO,,2.339,61.0407
SN60,LINNES,NO,564.0,12.499,61.5581
SN98580,VARDØ LUFTHAVN,NO,12.0,31.0502314,70.3512896
SN78250,LEIRFJORD,NO,53.0,12.9097,66.0668
SN395700,ROSSLARE,IE,,-6.33333333333333,52.25
SN73800,TUNNSJØ,NO,376.0,13.6506,64.6837
SN12648,LILLEHAMMER - RÅDHUSET,NO,210.0,10.4675,61.1145
SN210100,HEMAVAN,SE,458.0,15.0827777777778,65.8061111111111
SN81650,SALTDAL - NORDNES,NO,39.0,15.3155,66.9368
SN382700,"PLYMOUTH, MOUNT BATTEN",GB,50.0,-4.12111111111111,50.355
SN75020,OTTERØY,NO,36.0,11.28055,64.5228
SN834800,CIUDAD REAL,ES,628.0,-3.92027777777778,38.9891666666667
SN66120,RV714 VÅVATNET,NO,310.0,9.5685,63.3093
SN1668400,SKYROS (AIRPORT),GR,13.0,24.4905555555556,38.9627777777778
SN9050,GRIMSE,NO,800.0,9.9907,62.063
SN67340,E6 BUVATNET,NO,425.0,10.0213,62.8613
SN85840,VÆRØY HELIPORT,NO,4.0,12.7228,67.6527
SN223100,FOLLINGE,SE,362.0,14.6080555555556,63.6772222222222
SN423100,MITTARFIK KANGERLUSSUAQ (SDR. STROEMFJORD LUFTHAVN),GL,50.0,-50.7166666666667,67.0166666666667
SN37150,STORGAMA,NO,570.0,8.6537,59.0523
SN99890,KAFFIØYRA,SJ,15.0,11.9263,78.6568
SN4950,FV175 FOLMO,NO,145.0,11.494,60.1468
SN32350,ÅMOTSDAL,NO,567.0,8.3768,59.6478
SN61060,REKDAL,NO,43.0,6.7552,62.6512
SN47055,E39 EIKJE,NO,40.0,5.489,59.2955
SN217690,KUSMARK D,SE,55.0,20.8323,64.8846
SN26500,GEITHUS,NO,64.0,9.9728,59.9202
SN37500,FOLDSÆ,NO,492.0,8.1517,59.3242
SN246400,STOCKHOLM/BROMMA,SE,15.0,17.8977777777778,59.3652777777778
SN249800,SVENSKA HOGARNA A,SE,12.0,19.5022222222222,59.4422222222222
SN6170,RV2 HASLEMOSLETTA,NO,189.0,11.9425,60.624
SN50150,HATLESTRAND,NO,45.0,5.9032,60.045
SN213590,SORSELE,SE,150.0,17.5225,65.5354
SN3290,RAKKESTAD,NO,100.0,11.3905,59.3882
SN22840,REINLI,NO,628.0,9.4905,60.8346
SN27272,TØNSBERG - EIK,NO,55.0,10.4275,59.2937
SN26590,DRAMMEN - SLETTA,NO,4.0,10.2312,59.7445
SN20301,HØNEFOSS - HØYBY,NO,140.0,10.2478,60.1665
SN53990,FV50 VESTREDALEN,NO,1160.0,7.5748,60.7418
SN54645,E16 FILEFJELL V/SMEDDALEN,NO,934.0,8.0413,61.1677
SN287500,OULU AIRPORT,FI,11.0,25.3727777777778,64.9263888888889
SN47270,KARMØY - HYDRO,NO,8.0,5.3135,59.3113
SN74670,E6 NAMSSKOGAN,NO,280.0,13.3025,65.0627
SN1541000,DROBETA-TURNU SEVERIN,RO,77.0,22.6261111111111,44.6263888888889
SN95350,BANAK,NO,5.0,24.9793,70.06
SN12280,RV3 STABEKKEN,NO,219.0,11.2853,60.8165
SN1230000,GORZOW WLKP,PL,71.0,15.2772222222222,52.7411111111111
SN41860,KVINESHEI - SØRHELLE,NO,317.0,6.9821926,58.2431584
SN300500,LERWICK,GB,82.0,-1.185,60.1388888888889
SN51460,E16 EIDESMOEN,NO,45.0,6.2048,60.6377
SN76931,TROLL A,NO,128.0,3.7193,60.6435
SN76967,OSEBERG SØR,NO,,2.797,60.3902
SN20929,JOHAN SVERDRUP,NO,67.0,2.5457,58.8353
SN1718400,AKHISAR,TR,93.0,27.85,38.9166666666667
SN54600,MARISTOVA,NO,806.0,8.0368593,61.1098838
SN82000,SETSÅ,NO,7.0,15.4857,67.1658
SN55820,FJÆRLAND - BREMUSEET,NO,3.0,6.7642,61.4233
SN96400,SLETTNES FYR,NO,8.0,28.217,71.0888
SN296400,KUSTAVI ISOKARI,FI,4.0,21.0266666666667,60.7222222222222
SN52940,E39 KRINGLA,NO,220.0,5.4988,60.941
SN619000,BORNHOLMS LUFTHAVN,DK,16.0,14.7494444444444,55.0677777777778
SN14550,PRESTSTULEN,NO,823.0,9.0084,61.9225
SN13150,FÅVANG,NO,200.0,10.1872,61.4582
SN76922,STATFJORD A,NO,71.0,1.8522,61.2553
SN63940,E6 GRØNBAKKEN,NO,940.0,9.5877,62.2767
SN76240,SØMNA - KVALØYFJELLET,NO,302.0,11.9927,65.22
SN219700,HAPARANDA,SE,13.0,24.1113888888889,65.8236111111111
SN19825,TOFTE - RULLETO,NO,9.0,10.5813,59.5513
SN69960,BURAN,NO,182.0,11.5436,63.7199
SN89985,SJUFJELLET,NO,1074.0,19.5442,69.1025
SN50500,FLESLAND,NO,48.0,5.2265,60.2892
SN69655,FROSTA,NO,32.0,10.6932,63.5652
SN97710,ISKORAS II,NO,591.0,25.346,69.3003
SN27281,TØNSBERG - BARKÅKER,NO,60.0,10.3957,59.3173
SN50850,FV580 HAUKELAND,NO,80.0,5.4515,60.357
SN76330,BRØNNØYSUND LUFTHAVN,NO,9.0,12.2182,65.4567
SN8135,RV3 EVENSTAD,NO,254.0,11.083,61.4187
SN2260200,REBOLY,RU,180.0,30.8166666666667,63.8333333333333
SN91528,GAMANJUNNI - 1100MOH,NO,1100.0,20.57,69.4805
SN606000,FLYVESTATION KARUP,DK,52.0,9.11388888888889,56.2933333333333
SN69520,E14 TEVELDALEN,NO,465.0,12.0385,63.3407
SN60620,GRØNNING,NO,312.0,7.5135,62.3292
SN12980,LILLEHAMMER - BJØRNERUD,NO,388.0,10.4548,61.1478
SN250590,LYSEKIL D,SE,30.0,11.4321,58.2713
SN13760,FV51 VALDRESFLYE,NO,1390.0,8.8103,61.3892
SN3730,E18 SMÅLENENES BRU,NO,97.0,11.095,59.5923
SN714900,ORLY,FR,89.0,2.38444444444444,48.7166666666667
SN25630,GEILO - OLDEBRÅTEN,NO,772.0,8.1948,60.53
SN14200,LEIRFLATEN,NO,599.0,9.1542,61.7247
SN57830,FV614 LANGESI,NO,374.0,5.4587,61.8325
SN89940,DIVIDALEN II,NO,204.0,19.7017,68.7817
SN76958,ÅSGARD B,NO,114.0,6.7912,65.1103
SN62980,GJEMNES - REINSFJELLET,NO,990.0,7.925,62.93
SN99872,ADVENTDALEN - UPPER SNOWDRIFT,SJ,,15.9453,78.1823
SN61580,E136 BRUSTUGLIA,NO,450.0,8.1255,62.2943
SN43520,FV42 TVERRA,NO,385.0,6.4867,58.6265
SN99540,NYRUD,NO,56.0,29.244,69.147
SN55300,SKJOLDEN,NO,17.0,7.606,61.4962
SN226590,SÖDERSEL D,SE,385.0,18.1689,63.747
SN96310,MEHAMN LUFTHAVN,NO,13.0,27.8298,71.033
SN92910,SOPNESBUKT,NO,8.0,22.3243,70.0518
SN91510,MANNDALEN II,NO,60.0,20.5398,69.5208
SN57480,BOTNEN I FØRDE,NO,237.0,6.0586,61.5349
SN84880,KATTERAT,NO,365.0,17.966,68.3995
SN3304100,GOMEL,BY,126.0,30.96305,52.4019
SN9310,HJERKINN II,NO,1012.0,9.5423,62.2207
SN56520,HOVLANDSDAL,NO,85.0,5.4342,61.232
SN1211500,USTKA,PL,3.0,16.8541666666667,54.5883333333333
SN50231,EIKELANDSOSEN,NO,82.0,5.7436545,60.2500911
SN88630,FJORDGÅRD,NO,45.0,17.6275,69.5097
SN263500,MALMO,SE,20.0,13.0736111111111,55.5713888888889
SN11060,FV181 FINSBRÅTAN,NO,322.0,11.3588,60.3712
SN49800,FET I EIDFJORD,NO,735.0,7.2798,60.4085
SN243170,STÄLLDALEN,SE,205.0,14.891,59.9391
SN3030,FREDRIKSTAD,NO,30.0,10.9632,59.2307
SN30340,SKIEN - PETERSBORG,NO,35.0,9.5908,59.2317
SN27460,NØTTERØY - BORGHEIM,NO,5.0,10.4103,59.2173
SN84970,EVENES LUFTHAVN,NO,26.0,16.6833,68.4912
SN217430,HARADS D,SE,55.0,20.968,66.0805
SN9400,RV3 BERGERØNNINGEN,NO,480.0,10.6165,62.179
SN55928,BALESTRAND - BALE,NO,15.0,6.5285,61.2028
SN59660,VOLDA,NO,21.0,6.0673,62.1468
SN3990,RV22 KROKEDAL,NO,179.0,11.2923,59.7582
SN80340,TRÆNA - HUSØY,NO,15.0,12.0917,66.4997
SN23800,YLJA KRAFTVERK,NO,517.0,8.3807,61.1973
SN236100,HÄRNÖSAND,SE,8.0,17.9471,62.628
SN232700,SVEG A,SE,357.0,14.4069444444444,62.0461111111111
SN60010,SYKKYLVEN - VIK,NO,5.0,6.5758,62.3858
SN24670,FV280 ENDERUD BRU,NO,153.0,9.6919,60.2684
SN44480,SØYLAND I GJESDAL,NO,276.0,5.9817,58.6855
SN56780,SYGNA,NO,45.0,5.7265,61.3435
SN99935,KARL XII-ØYA,SJ,5.0,25.0048,80.6518
SN45350,LYSEBOTN,NO,5.0,6.6467,59.0552
SN1712900,ETIMESGUT HAVALİMANI,TR,806.0,32.6854,39.9558
SN223190,LÅNGAN D,SE,300.0,14.4859,63.4555
SN50527,KV4821 NIPEDALEN,NO,98.0,5.2655,60.3685
SN18390,OSLO - BJØLSEN,NO,74.0,10.7483,59.9418
SN250500,MASESKAR,SE,16.0,11.3336111111111,58.0941666666667
SN47264,KARMØY - HARALDSVIK,NO,9.0,5.2777,59.388
SN753500,GOURDON,FR,260.0,1.39666666666667,44.745
SN26934,DRAMMEN - SOLUMSTRAND,NO,5.0,10.2688,59.7112
SN90,RV25 MIDTSKOGBERGET,NO,575.0,12.0647,61.1185
SN27400,NØTTERØY - FØYNLAND,NO,2.0,10.45604,59.23662
SN84910,E10 SKITDALSHØGDA,NO,400.0,17.8725,68.516
SN30325,SKIEN - LANGEDUKEN,NO,30.0,9.5432,59.2017
SN1296000,BAJA,HU,111.0,19.010556,46.179722
SN661000,PAYERNE (6610-0),CH,490.0,6.9425,46.8116666666667
SN90490,TROMSØ - LANGNES,NO,8.0,18.9133,69.6767
SN63530,HAFSÅS,NO,698.0,8.9773,62.5095
SN99740,KONGSØYA,SJ,20.0,28.834,78.918
SN76934,STATFJORD B,NO,142.0,1.8288,61.2063
SN47820,EIKEMO,NO,178.0,6.2786,59.8594
SN76530,TJØTTA,NO,21.0,12.4255,65.8295
SN241190,SÖLJE D,SE,70.0,12.6959,59.4846
SN711000,BREST-GUIPAVAS,FR,94.0,-4.38333333333333,48.45
SN1400,BREKKE SLUSE,NO,114.0,11.5583,59.1477
SN324000,BOULMER,GB,23.0,-1.60138888888889,55.4208333333333
SN3331700,Shepetivka,UA,278.0,27.0369444444444,50.1613888888889
SN77490,KAPPFJELLET,NO,940.0,13.4483,65.3143
SN28450,E134 MEHEIA,NO,390.0,9.4545,59.6112
SN58030,FV615 HYEN,NO,7.0,5.9467,61.7503
SN86740,BØ I VESTERÅLEN III,NO,8.0,14.4347,68.6072
SN3015,BORGE - BERG,NO,10.0,11.032,59.1895
SN33250,RAULAND,NO,719.0,8.0317,59.7057
SN47300,UTSIRA FYR,NO,55.0,4.8723,59.3065
SN57770,YTTERØYANE FYR,NO,26.0,4.6817,61.5717
SN264400,OLANDS SODRA UDDE,SE,2.0,16.4036111111111,56.1977777777778
SN76925,DRAUGEN,NO,55.0,7.77915,64.352
SN85080,KANSTADBOTN,NO,6.0,15.8768,68.5172
SN212310,JÄCKVIK,SE,430.0,16.9763,66.3881
SN606900,FOULUM,DK,53.0,9.57083333333333,56.4930555555556
SN78800,VARNTRESK,NO,406.0,14.1942,65.8255
SN398000,MALIN HEAD,IE,20.0,-7.33333333333333,55.3666666666667
SN43810,MAUDAL,NO,311.0,6.3675,58.7645
SN215100,JOKKMOKK FPL,SE,275.0,20.1666666666667,66.4833333333333
SN17280,GULLHOLMEN,NO,14.0,10.578,59.4352
SN848700,ALMERIA/AEROPUERTO,ES,21.0,-2.35694444444444,36.8463888888889
SN87000,ÅNSTADBLÅHEIA,NO,500.0,15.3112,68.7183
SN9250,FV29 GRAVBEKKLIA,NO,808.0,9.7182,62.1838
SN49085,FOLGEFONNA SKISENTER,NO,1212.0,6.4347,60.2263
SN11000,FV705 LANGSVOLA,NO,865.0,11.8077,62.8715
SN219900,YLINENJARVI,SE,132.0,23.4680555555556,66.6236111111111
SN211000,GIELAS,SE,577.0,15.0688888888889,65.3280555555556
SN243200,OREBRO,SE,54.0,15.0455555555556,59.2288888888889
SN70510,VERA II,NO,377.0,12.3815,63.7853
SN2970,E16 ØYERMOEN,NO,273.0,12.4562,60.2525
SN31680,HANSBU,NO,1160.0,7.4247,60.0825
SN30280,FV353 BRUMYRDAL,NO,10.0,9.5077,59.1255
SN87763,E10 TJELDSUNDBRUA ØST,NO,20.0,16.5921,68.6269
SN52360,E39 ROMARHEIMDALEN,NO,325.0,5.6238,60.7915
SN53230,E16 LANGHUSO,NO,490.0,7.0557,60.8935
SN5590,KONGSVINGER,NO,148.0,12.0067,60.1903
SN232900,HAMRA,SE,454.0,14.995,61.6605555555556
SN256200,LINKOPING/MALMSLATT,SE,93.0,15.5258333333333,58.3980555555556
SN87117,FV82 KJØLHÅGEN,NO,45.0,16.0402,69.271
SN18240,E6 FURUSET,NO,160.0,10.8905,59.9378
SN30020,E18 VESTMARKA,NO,55.0,10.0448,59.0768
SN85448,SVOLVÆR LH - NORD,NO,3.0,14.6712,68.2458
SN250700,HUD,SE,80.0,11.4177777777778,58.6608333333333
SN226010,LÄNNÄS,SE,30.0,17.6543,63.1663
SN99875,JANSSONHAUGEN,SJ,275.0,16.467,78.1793
SN2289200,VYBORG,RU,10.0,28.7333333333333,60.7166666666667
SN92500,LANGFJORDJØKELEN,NO,915.0,21.7223,70.1227
SN24960,GOL - STAKE,NO,542.0,8.9478,60.7188
SN94680,HONNINGSVÅG LUFTHAVN,NO,14.0,25.9782,71.0105
SN44985,FV45 HUNNEDALEN,NO,660.0,6.6665,58.8933
SN10300,HÅSJØEN - SOLGLØTT,NO,650.0,11.7752,62.4698
SN47910,MIDTBOTN,NO,827.0,6.1824628,59.9153256
SN39010,KRISTIANSAND - FIDJEÅSEN,NO,77.0,8.0947,58.1302
SN210300,HEMAVAN-GIEREVARTO,SE,793.0,15.0644444444444,65.78
SN46510,E134 MIDTLÆGER,NO,1079.0,6.9825,59.8402
SN75220,RØRVIK LUFTHAVN,NO,4.0,11.1408,64.835
SN87772,SÆTERTINDEN VED TJELDSUNDET,NO,1095.0,16.3608,68.5863
SN1043900,FRITZLAR (FLUGPLATZ),DE,172.0,9.28,51.1188888888889
SN26898,DRAMMEN - ÅSSIDEN,NO,15.0,10.1382,59.7538
SN27212,FON,NO,83.0,10.2087,59.4173
SN4827,FV172 HOLTER,NO,128.0,11.203,59.9542
SN224700,KRANGEDE,SE,183.0,16.1733333333333,63.1522222222222
SN58703,RV15 SKJERDINGSDALEN,NO,582.0,7.2544,61.9632
SN23300,FV51 GOLSFJELLET,NO,830.0,9.1185,60.8175
SN7420,RENA - ØRNHAUGEN,NO,872.0,11.4992,61.3763
SN776100,AJACCIO,FR,6.0,8.79277777777778,41.9180555555556
SN774700,PERPIGNAN,FR,44.0,2.87277777777778,42.7372222222222
SN84210,LOSISTUA,NO,740.0,17.7905,68.1905
SN39970,E39 MONANKRYSSET,NO,19.0,7.8298,58.111
SN1103500,WIEN/HOHE WARTE,AT,198.0,16.3564,48.2486
SN67280,SOKNEDAL,NO,299.0,10.1788,62.9535
SN60650,LINGE,NO,34.0,7.2173,62.288
SN89360,BARDUFOSS - RUSTAFJELLET,NO,410.0,18.4572,69.0422
SN59250,REFVIK,NO,3.0,5.0878,61.9985
SN49220,ODDA - JORDAL,NO,89.0,6.5395,60.0447
SN32290,RV36 SELJORD,NO,125.0,8.6443,59.4895
SN52970,SØREBØ,NO,4.0,5.9063,61.0657
SN611000,FLYVESTATION SKRYDSTRUP,DK,43.0,9.26333333333333,55.2252777777778
SN17980,OSLO - LJABRUVEIEN,NO,92.0,10.8237,59.8427
SN65145,AURE,NO,58.0,8.5403,63.2692
SN58990,RV15 TOTLAND,NO,23.0,5.395,61.9347
SN26790,MJØNDALEN - ORKIDEHØGDA,NO,4.0,10.0275,59.7498
SN213530,FJÄLLSJÖNÄS,SE,425.0,16.6077,65.6242
SN205500,NAIMAKKA,SE,402.0,21.5275,68.6777777777778
SN700,DREVSJØ,NO,672.0,12.0462,61.887
SN26862,DRAMMEN TINGHUS,NO,15.0,10.2118,59.744
SN220600,STORLIEN-STORVALLEN,SE,583.0,12.1333333333333,63.2833333333333
SN82290,BODØ VI,NO,16.0,14.3816,67.2723
SN24350,FV2830 NAKKERUD,NO,135.0,10.049,60.0518
SN226530,HATTSJÖBÄCKEN D,SE,170.0,18.9539,63.5918
SN50503,SÆDALEN,NO,221.0,5.3967,60.35
SN18500,BJØRNHOLT,NO,360.0,10.6878,60.0513
SN76790,SANDNESSJØEN - STAMNESØRA,NO,4.0,12.6022,66.0197
SN91890,E6 KVÆNANGSFJELLET,NO,390.0,21.6073,69.8978
SN18195,OSLO - HØYENHALL,NO,80.0,10.8212,59.9033
SN77230,MOSJØEN LUFTHAVN,NO,72.0,13.218,65.7842
SN241800,KARLSTAD FLYGPLATS,SE,107.0,13.3375,59.4447222222222
SN63880,E6 DRIVSTUA,NO,697.0,9.6227,62.4272
SN89010,KISTEFJELL,NO,982.0,18.1288,69.2897
SN62480,ONA II,NO,20.0,6.5378,62.8585
SN1509000,IASI,RO,74.0,27.6272222222222,47.1633333333333
SN74350,NAMSSKOGAN,NO,140.0,12.846,64.7422
SN69550,ØSTÅS I HEGRA,NO,174.0,11.3536,63.4871
SN1013100,CUXHAVEN,DE,5.0,8.70583333333333,53.8713888888889
SN262920,OSBY,SE,90.0,13.9376,56.3742
SN88023,FV848 FORNES,NO,8.0,17.479,68.8698
SN22690,E16 BEGNADALEN,NO,170.0,9.8953,60.632
SN1645300,GELA,IT,58.0,14.225,37.0763888888889
SN283600,SODANKYLA ARCTIC RESEARCH CENTRE,FI,179.0,26.6288888888889,67.3666666666667
SN48170,E39 MEHAMMAR,NO,60.0,5.488,59.9127
SN96250,FV888 STORE REINOKSEVATN,NO,338.0,27.497,70.7278
SN19810,RØYKEN - SKOGSBORG,NO,3.0,10.5198,59.6919
SN826100,CACERES (8261-0),ES,394.0,-6.33888888888889,39.4713888888889
SN1659700,LUQA,MT,91.0,14.4833333333333,35.85
SN67890,FV30 RUGLDALEN,NO,700.0,11.3245,62.7403
SN298000,LEMLAND NYHAMN,FI,8.0,19.9538888888889,59.9591666666667
SN96600,GAMVIK - SKJÅNES,NO,15.0,28.0995,70.8
SN25830,FINSEVATN,NO,1210.0,7.527,60.5938
SN47192,SKUDENES INDUSTRI,NO,16.0,5.2602,59.1467
SN33555,E134 VINJE,NO,490.0,7.8332,59.6203
SN79700,STORFORSHEI,NO,110.0,14.53,66.3962
SN25115,HEMSEDAL SKISENTER,NO,1344.0,8.4968,60.8397
SN68270,LØKSMYR,NO,173.0,10.4369,63.2315
SN4785,GARDERMOEN PLU,NO,203.0,11.0782,60.2105
SN63820,DRIVDALEN,NO,680.0,9.5827,62.4473
SN92350,NORDSTRAUM I KVÆNANGEN,NO,20.0,21.8958,69.8362
SN253610,BORÅS,SE,135.0,12.9493,57.7611
SN18180,OSLO - TRASOP,NO,176.0,10.847,59.907
SN2603800,TALLINN-HARKU,EE,33.0,24.6027777777778,59.3980555555556
SN218180,TALLJÄRV D,SE,235.0,22.309,66.2512
SN39201,KRISTIANSAND - BRÅVANN,NO,32.0,7.9383,58.1095
SN31853,E134 GVAMMEN,NO,159.0,8.7152,59.5993
SN27403,NØTTERØY - KNARRBERG,NO,1.0,10.45442,59.2084
SN11900,BIRI,NO,190.0,10.5954,60.9518
SN54740,FV53 NADDVIK,NO,35.0,7.6218,61.1883
SN211900,KVIKKJOKK ARRENJARKA,SE,315.0,18.0197222222222,66.8872222222222
SN39210,DUEKNIPEN,NO,86.0,7.9733,58.1427
SN248110,BROVALLEN,SE,100.0,16.3062,60.0991
SN62160,ISTAD KRAFTSTASJON,NO,20.0,7.7002,62.805
SN81315,FV17 SALTSTRAUMBRUA,NO,21.0,14.6125,67.2313
SN41175,LAUDAL - KLEIVEN,NO,280.0,7.4388,58.2772
SN82840,STYRKESNES - HESTVIKA,NO,27.0,15.4953,67.5258
SN206490,PARAKKA,SE,340.0,21.6687,67.4864
SN1501000,SATU MARE,RO,123.0,22.8872222222222,47.7213888888889
SN254480,SKÖVDE,SE,150.0,13.8436,58.3949
SN67005,E39 KALLFOSS,NO,71.0,9.9983,63.3297
SN19490,GJETTUM PLU,NO,67.0,10.5122,59.9058
SN13640,OLSTAPPEN,NO,630.0,9.4043,61.5145
SN1718800,USAK,TR,919.0,29.4,38.6833333333333
SN60850,EMBLEM,NO,1.0,6.4325,62.4317
SN818100,BARCELONA/AEROPUERTO,ES,4.0,2.07,41.2927777777778
SN49420,SKJEGGEDAL,NO,470.0,6.6293,60.128
SN1219500,SUWALKI,PL,184.0,22.9488888888889,54.1308333333333
SN22890,FV33 TONSÅSEN,NO,767.0,9.545,60.8643
SN703700,ROUEN-BOOS,FR,156.0,1.18166666666667,49.3830555555556
SN16610,FOKSTUGU,NO,973.0,9.2862,62.1133
SN35110,FV76 ØSTERHOLTHEIA,NO,85.0,9.1197,58.851
SN228480,NORDANBÄCK D,SE,180.0,19.2951,63.7424
SN298200,HANKO RUSSARO,FI,5.0,22.9519444444444,59.7736111111111
SN76470,HØYHOLM,NO,8.0,12.3754,65.6413
SN1564000,SLIVEN *,BG,257.0,26.3333333333333,42.6666666666667
SN61810,FV660 VISTDALSHEIA,NO,500.0,8.0425,62.6578
SN99420,E6 KIRKENES SYD,NO,60.0,30.005,69.6873
SN224200,HOTING,SE,241.0,16.2388888888889,64.0886111111111
SN1269500,PRZEMYSL,PL,279.0,22.7719444444444,49.8041666666667
SN41480,ÅSERAL,NO,268.0,7.4128,58.6172
SN27161,HORTEN - SKOPPUM,NO,40.0,10.3985,59.3845
SN99770,ISTJØRNDALEN,SJ,188.0,15.2108,78.0092
SN91740,SØRKJOSEN LUFTHAVN,NO,6.0,20.9553,69.7887
SN96890,KORGÅSEN,NO,418.0,28.3773,69.9363
SN38250,E18 STUDEVANN,NO,35.0,8.1865,58.1995
SN29350,UVDAL KRAFTVERK,NO,648.0,8.7057,60.255
SN50120,SKULAFOSSEN KRAFTSTASJON,NO,16.0,6.0392,60.2747
SN77403,E6 MAJAVATN,NO,355.0,13.3683,65.2168
SN60500,TAFJORD,NO,11.0,7.4218,62.2305
SN31970,GAUSTATOPPEN,NO,1804.0,8.6562,59.8497
SN91480,E8 GALGO,NO,510.0,20.7468,69.1467
SN217310,PITEÅ,SE,5.0,21.4776,65.2636
SN44620,STAVANGER - TASTA,NO,30.0,5.6847,58.9875
SN730,VALDALEN,NO,794.0,12.1722,62.0758
SN13030,GAUSDAL - FOLLEBU,NO,375.0,10.2588,61.2247
SN8230,RV3 KOPPANG,NO,283.0,11.0045,61.5747
SN60240,ÅKERNESET,NO,900.0,6.9933,62.191
SN1600,FV21 AREBEKKEN,NO,120.0,11.6843,59.2543
SN403000,REYKJAVIK,IS,54.0,-21.9028,64.1275
SN230310,LJUSNEDAL,SE,585.0,12.6043,62.5493
SN89820,ØVERBYGD II,NO,85.0,19.3537,69.0222
SN54731,FV2515 FILEFJELL V/VARDEN,NO,1010.0,8.1527,61.1783
SN1950,ØRJE,NO,123.0,11.6506,59.4829
SN62860,FV64 ATLANTERHAVSVEGEN,NO,7.0,7.34,63.0152
SN44710,E39 FORUS,NO,15.0,5.7183,58.8842
SN91695,FV866 MAURSUND,NO,5.0,20.914,69.9367
SN1072900,MANNHEIM,DE,96.0,8.55416666666667,49.5091666666667
SN4543,RV4 STRYKEN,NO,235.0,10.7217,60.157
SN17875,E18 HOLSTAD,NO,91.0,10.8312,59.685
SN270100,ENONTEKIÖ KILPISJÄRVI SAANA,FI,1002.0,20.851,69.0428
SN1076300,NUERNBERG,DE,314.0,11.0569444444444,49.5044444444444
SN31620,MØSSTRAND II,NO,977.0,8.1785,59.8397
SN91130,LYNGEN - GJERDVASSBU,NO,710.0,20.094,69.5588
SN84500,STRAUMSNES,NO,200.0,17.662,68.432
SN55700,SOGNDAL LUFTHAMN,NO,497.0,7.1413,61.158
SN284500,ROVANIEMI AIRPORT,FI,193.0,25.8219444444444,66.5625
SN222110,DIGERNÄSET D,SE,410.0,12.9206,63.624
SN58320,MYKLEBUST I BREIM,NO,315.0,6.6092,61.708
SN2650,AURSKOG II,NO,128.0,11.5802,59.9118
SN66045,FV710 KJØRMOEN,NO,135.0,9.9482,63.4263
SN279000,KUMLINGE KK,FI,23.0,20.7472222222222,60.2580555555556
SN58670,RV15 FOSNES,NO,32.0,7.0588,61.9078
SN18162,OSLO - KVÆRNERBYEN,NO,15.0,10.7863,59.9047
SN206400,SAITTAROVA,SE,240.0,22.2336111111111,67.3377777777778
SN640000,KOKSIJDE,BE,6.0,2.6525,51.0880555555556
SN71320,RISSA III,NO,23.0,9.9705,63.5858
SN3780,IGSI I HOBØL,NO,144.0,11.0468,59.636
SN36330,ARENDAL LUFTHAVN,NO,134.0,8.7028,58.5158
SN29700,FV40 DAGALIFJELL,NO,1035.0,8.4885,60.3738
SN229700,BJUROKLUBB,SE,40.0,21.5791666666667,64.4813888888889
SN18270,OSLO - VESTLI,NO,200.0,10.9185,59.9683
SN91731,ÅRVIKSAND,NO,25.0,20.5302,70.1967
SN80615,ENGABREEN - SKJÆRET,NO,1362.0,13.9298,66.6432
SN212420,ARJEPLOG-MYRHEDEN D,SE,448.0,18.2287,65.9799
SN224290,LÖVBERGA D,SE,267.0,15.8533,63.9664
SN42700,E39 REGEVIK,NO,150.0,6.6315,58.3702
SN44970,FV45 DIRDAL,NO,65.0,6.243,58.8077
SN2560,FV169 ÅSERUD,NO,204.0,11.3625,59.8388
SN4740,UKKESTAD,NO,187.0,11.051,60.1742
SN30247,E18 LANNER,NO,130.0,9.771,59.1005
SN26820,HOKKSUND,NO,15.0,9.8922,59.7613
SN93301,SUOLOVUOPMI - LULIT,NO,381.0,23.5345,69.5797
SN30256,PORSGRUNN - HERØYA,NO,5.0,9.641412,59.110498
SN80050,FV17 SJONFJELLET,NO,320.0,13.2882,66.2862
SN11110,SESVOLL,NO,205.0,11.1587,60.2413
SN39165,KRISTIANSAND BRANNSTASJON,NO,9.0,7.9993,58.1555
SN835900,ALICANTE,ES,81.0,-0.494166666666667,38.3725
SN1674300,KYTHIRA,GR,166.0,22.9886111111111,36.1491666666667
SN47240,KARMØY - BREKKEVANN,NO,19.0,5.2623,59.2695
SN57710,FLORØ LUFTHAMN,NO,9.0,5.0278,61.5832
SN27780,TJØLLING,NO,19.0,10.125,59.0467
SN18225,OSLO - TONSENHAGEN,NO,204.0,10.8293,59.9467
SN99752,SØRKAPPØYA,SJ,10.0,16.5428,76.4733
SN58060,E39 REED,NO,82.0,6.3913,61.7392
SN30875,BUSNES,NO,314.0,8.9863,59.8103
SN87640,HARSTAD STADION,NO,45.0,16.5362,68.8029
SN38600,MYKLAND,NO,245.0,8.2888,58.633
SN44548,SOLA PLU,NO,14.0,5.6495,58.8792
SN26802,MJØNDALEN - ÅSEN,NO,166.0,10.0258,59.7328
SN80705,GLOMFJORD - SKIHYTTA,NO,520.0,13.948,66.8275
SN51250,ØVSTEDAL,NO,316.0,5.9647,60.6887
SN226120,GRANTRÄSK D,SE,455.0,18.3756,64.3346
SN46800,FV520 SVANDALSFOSSEN,NO,18.0,6.292,59.6248
SN266700,KARLSKRONA-SODERSTJERNA,SE,2.0,15.5866666666667,56.1430555555556
SN56400,YTRE SOLUND,NO,3.0,4.6693,61.007
SN2673000,VILNIUS (26730-0),LT,162.0,25.1069444444444,54.6261111111111
SN18440,OSLO - KJELSÅS,NO,162.0,10.7853,59.9605
SN603000,FLYVESTATION AALBORG,DK,3.0,9.85055555555556,57.0963888888889
SN67175,E6 KVÅL,NO,13.0,10.2832,63.2583
SN250580,RÖRASTRAND D,SE,5.0,11.6528,58.0582
SN769000,NICE,FR,4.0,7.20888888888889,43.6488888888889
SN223620,HAMMERDAL D,SE,330.0,15.3685,63.575
SN212190,SVARTBERGET D,SE,430.0,17.321,66.3239
SN262800,HANO,SE,60.0,14.8494444444444,56.0138888888889
SN90110,MORTENHALSSKOLTEN,NO,740.0,18.6208,69.4229
SN28922,VEGGLI II,NO,275.0,9.1468,60.0435
SN377200,HEATHROW,GB,24.0,-0.450555555555556,51.4791666666667
SN45870,FISTER - SIGMUNDSTAD,NO,30.0,6.0365,59.16
SN31210,MÅR - SYNKEN,NO,1125.0,8.2667,60.1
SN1237500,WARSZAWA-OKECIE,PL,107.0,20.9611111111111,52.1627777777778
SN1036100,MAGDEBURG,DE,76.0,11.5827777777778,52.1027777777778
SN223180,TULLUS D,SE,340.0,14.3174,63.3085
SN31560,FV37 RAULANDSFJELLET,NO,959.0,8.258,59.7978
SN850500,HORTA/CASTELO BRANCO (ACORES),PT,40.0,-28.7137,38.5211
SN37580,FV45 SKAFSÅ,NO,816.0,7.71,59.3445
SN75190,FV770 RØRVIK,NO,35.0,11.2322,64.8487
SN4725,E16 GARDERMOEN,NO,203.0,11.1165,60.1677
SN32780,HØIDALEN I SOLUM,NO,113.0,9.2668,59.1444
SN38800,TOVDAL,NO,220.0,8.2295,58.7938
SN29900,SKURDEVIKÅI,NO,1250.0,7.5693,60.3778
SN60880,E39 BRUSDALEN,NO,70.0,6.4723,62.4837
SN1073800,STUTTGART-ECHTERDINGEN,DE,371.0,9.22527777777778,48.6891666666667
SN69035,E6 MALVIK,NO,133.0,10.664,63.4262
SN39150,KRISTIANSAND - SØMSKLEIVA,NO,12.0,8.052,58.1502
SN3720,ASKIM - KYKKELSRUD,NO,87.0,11.0962,59.5873
SN232520,HEDEVIKEN,SE,410.0,13.6748,62.4112
SN98974,BERGEBYDALEN,NO,150.0,28.9563,70.227
SN1614900,RIMINI,IT,12.0,12.6127777777778,44.0244444444444
SN26670,HAKAVIK,NO,21.0,9.9534,59.62515
SN19663,E16 SOLLIHØGDA VEST,NO,340.0,10.3435,59.964
SN47350,RØVÆR,NO,25.0,5.078,59.4382
SN18210,OSLO - HOVIN,NO,100.0,10.804,59.923
SN30860,BERGELIGREND,NO,514.0,9.058,59.8861
SN298400,INKOO BAGASKAR,FI,12.0,24.0141666666667,59.9311111111111
SN59570,BRANDAL II,NO,27.0,6.012,62.3975
SN27433,NØTTERØY - TENVIK,NO,1.0,10.3655,59.1745
SN12710,LILLEHAMMER - NORDSETERVEGEN HØYDEBASSENG,NO,562.0,10.5143,61.1431
SN81775,LØNSDAL STASJON,NO,520.0,15.4628,66.7435
SN54815,FV53 TYINOSEN,NO,1080.0,8.1385,61.2747
SN37230,TVEITSUND,NO,252.0,8.5187,59.0257
SN65940,SULA,NO,5.0,8.4543,63.8429
SN212100,MIERKENIS,SE,614.0,16.1088888888889,66.6816666666667
SN66810,RV3 LITJFOSSEN,NO,525.0,10.1523,62.6692
SN21700,FV250 VINGOMRÅSAN,NO,796.0,10.1453,61.0102
SN25100,HEMSEDAL - HØLTO,NO,648.0,8.5285,60.8703
SN11463,E6 MINNESUND,NO,150.0,11.2303,60.3977
SN60225,FV60 STRANDAFJELLET,NO,504.0,6.7928,62.2915
SN1519700,BARLAD,RO,172.0,27.6444444444444,46.2330555555556
SN27406,NØTTERØY - TORØD,NO,2.0,10.4238,59.169
SN18165,OSLO - RYEN,NO,130.0,10.8013,59.8963
SN46220,GULLINGEN SKISENTER,NO,639.0,6.4697,59.4128
SN66900,RV3 KVIKNESKOGEN,NO,695.0,10.3925,62.4763
SN700500,ABBEVILLE,FR,67.0,1.83388888888889,50.1361111111111
SN27415,FV308 TJØME-BUDAL,NO,16.0,10.3848,59.125
SN608000,ESBJERG LUFTHAVN,DK,30.0,8.56305555555556,55.5280555555556
SN68120,SAUPSTAD,NO,135.0,10.3597,63.3628
SN26060,SKOTSELV,NO,18.0,9.8948,59.8387
SN54770,FV53 BRENNBORG,NO,50.0,7.766,61.2722
SN89213,FV84 GUMPEN,NO,175.0,17.9633,69.072
SN255210,HÄRSNÄS,SE,119.0,15.237,58.2886
SN19780,ASKER - VOLLEN,NO,20.0,10.4895,59.8005
SN57390,SKEI I JØLSTER,NO,205.0,6.4873,61.5722
SN58960,HORNINDAL,NO,349.0,6.6502,62.0033
SN27630,SANDEFJORD - ENGA,NO,4.0,10.2147,59.0857
SN14711,GROV - SOLHAUG,NO,811.0,9.0133,61.8135
SN221000,BLAHAMMAREN A,SE,1090.0,12.1761111111111,63.1863888888889
SN670,FV26 SKARVEN,NO,754.0,11.9928,61.8405
SN60835,E39 DRAGSUNDET,NO,4.0,6.72544,62.4913
SN70390,FV72 INNSMOEN,NO,430.0,12.2143,63.656
SN214720,ADAK D,SE,410.0,18.6201,65.383
SN6690,RV3 EBRU,NO,273.0,11.4003,60.8567
SN44300,SÆRHEIM,NO,87.0,5.6508,58.7605
SN55425,SPØRTEGGBU,NO,1566.0,7.3892,61.5972
SN1706000,ISTANBUL/ATATURK,TR,48.0,28.8166666666667,40.9666666666667
SN27065,FV313 BOGEN,NO,25.0,10.2643,59.531
SN13060,GAUSDAL - OVREHAGEN,NO,552.0,10.1732,61.2732
SN41770,LINDESNES FYR,NO,16.0,7.048,57.9815
SN3810,ASKIM II,NO,141.0,11.166,59.5872
SN18703,OSLO - BLINDERN TESTFELT,NO,96.0,10.7194,59.94256
SN88450,SENJA - MEDBY,NO,4.0,17.0715,69.2805
SN54420,ØLJUSJØ PUMPEKRAFTVERK,NO,1124.0,8.0912,61.0067
SN75100,LIAFOSS,NO,44.0,11.9547,64.8382
SN19430,E18 SANDVIKA,NO,3.0,10.5403,59.8923
SN91725,SKJERVØY,NO,48.0,20.9625,70.0332
SN49351,TYSSEDAL IA,NO,4.0,6.5547,60.1188
SN212800,GUNNARN,SE,280.0,17.6666666666667,65.0
SN36055,ARENDAL SENTRUM,NO,21.0,8.7653,58.4603
SN208000,KARESUANDO,SE,330.0,22.45,68.4333333333333
SN96220,LEBESBY - KARLMYHR,NO,18.0,26.9938,70.5815
SN98400,MAKKAUR FYR,NO,9.0,30.07,70.7057
SN91770,NORDREISA - GALSOMELEN,NO,42.0,21.0957,69.7537
SN53101,VANGSNES,NO,49.0,6.6452,61.1724
SN24230,RV7 SOKNA,NO,210.0,9.8408,60.2225
SN49360,TYSSEDAL V,NO,147.0,6.5742,60.1173
SN51980,MYRKDALEN-ONDRAHAUGEN,NO,853.0,6.4675,60.8603
SN90720,MÅSVIK,NO,26.0,18.6938,69.9903
SN1288200,DEBRECEN repülőtér,HU,107.0,21.6056,47.4844
SN44605,E39 RENNESØY,NO,30.0,5.68,59.1222
SN55730,SOGNDAL - SELSENG,NO,421.0,6.9335,61.3348
SN90451,TROMSØ PLU,NO,100.0,18.9365,69.6537
SN50311,FV7 KVAMSKOGEN,NO,448.0,5.9668,60.3877
SN241070,LÖTEN D,SE,425.0,12.8399,61.0255
SN58350,FV60 UTVIKFJELLET,NO,635.0,6.5043,61.7668
SN98642,KOMMAGDALEN,NO,107.0,30.1908,70.2932
SN71000,STEINKJER - SØNDRE EGGE,NO,6.0,11.4493,64.0217
SN99710,BJØRNØYA,SJ,16.0,18.998,74.5035
SN25540,BAKKO I HOL,NO,969.0,8.0058,60.6792
SN36010,E18 HASLESTAD,NO,60.0,8.8413,58.5738
SN299100,PORVOO EMASALO,FI,20.0,25.6255555555556,60.2038888888889
SN719000,STRASBOURG-ENTZHEIM,FR,154.0,7.64027777777778,48.5494444444444
SN316200,ESKDALEMUIR,GB,236.0,-3.20666666666667,55.3116666666667
SN3200,BATERØD,NO,31.0,11.1338,59.3072
SN221700,ARE,SE,435.0,13.1605555555556,63.3736111111111
SN91420,E8 HALSEBAKKAN NEDRE,NO,148.0,20.4657,69.2852
SN44560,SOLA,NO,7.0,5.637,58.8843
SN27316,REVETAL,NO,30.0,10.2692,59.371
SN26975,SVELVIK - BOKERØYA,NO,3.0,10.4053,59.591
SN226500,HEMLING,SE,182.0,18.5502777777778,63.6513888888889
SN1038400,BERLIN-TEMPELHOF,DE,48.0,13.4022222222222,52.4675
SN90400,TROMSØ - HOLT,NO,20.0,18.9095,69.6538
SN724000,TOURS,FR,109.0,0.7275,47.4444444444444
SN234730,JÄRVSÖ,SE,140.0,16.1667,61.7111
SN226700,ORNSKOLDSVIK,SE,108.0,18.9797222222222,63.4116666666667
SN85645,E10 AKKARVIKA,NO,54.0,13.1543,67.9627
SN12291,E6 VIEN,NO,127.0,11.1113,60.8048
SN317100,LEUCHARS,GB,12.0,-2.86277777777778,56.3766666666667
SN40005,RV9 HEKNI,NO,235.0,7.548,59.0283
SN222600,OSTERSUND FROSON,SE,375.0,14.5002777777778,63.1955555555556
SN82110,VALNESFJORD,NO,20.0,15.1018,67.2763
SN49910,ULVIK - HJELTNES,NO,42.0,6.9325,60.5637
SN856200,BEJA (8562-0),PT,246.0,-7.86722222222222,38.0258333333333
SN76969,KVITEBJØRNFELTET,NO,,2.5063,61.079
SN70680,MÆRE III,NO,59.0,11.4255,63.9425
SN31850,HJARTDAL,NO,162.0,8.7133,59.6033
SN55930,BALESTRAND BRANNSTASJON,NO,14.0,6.5315,61.2038
SN63000,FV62 EIDSØRA,NO,37.0,8.166,62.7997
SN62291,MOLDE - NØISOMHED PLU,NO,14.0,7.2247,62.7423
SN27301,RAMNES - BERG,NO,30.0,10.2501,59.3562
SN291100,VAASA AIRPORT,FI,6.0,21.7547222222222,63.0586111111111
SN23560,BEITO,NO,754.0,8.8557,61.2433
SN262300,HORBY,SE,114.0,13.6688888888889,55.8633333333333
SN289700,KAJAANI AIRPORT,FI,147.0,27.6733333333333,64.2827777777778
SN71550,ØRLAND III,NO,10.0,9.6105,63.7045
SN51597,RV13 SVELGANE,NO,237.0,6.5332,60.6147
SN82020,E6 TUSSVIKA,NO,90.0,15.4125,67.223
SN36560,NELAUG,NO,142.0,8.63,58.6582
SN97470,RV92 SUOSSJAVRI,NO,324.0,24.2018,69.3772
SN49955,FV572 EDDEGJELET,NO,9.0,6.9147,60.5157
SN221900,GADDEDE A,SE,553.0,14.2208333333333,64.5044444444444
SN213000,ROPARUDDEN,SE,481.0,16.4172222222222,66.4861111111111
SN11125,E6 ANDELVA,NO,180.0,11.1358,60.2852
SN49865,RV7 SKULEVIKA,NO,1180.0,7.6148,60.3993
SN9384,DOVREFJELL DB1,NO,1505.0,9.3382,62.2969
SN59860,E39 FLÅSKJÆR,NO,20.0,5.9918,62.27
SN78360,SELJELIA,NO,126.0,13.5867,66.1317
SN42930,SIRDAL - SMØLEHEIKNUDEN,NO,920.0,6.8112,58.9112
SN76933,ORMEN LANGE,NO,0.0,5.015,63.49
SN16400,DOVRE-LANNEM,NO,560.0,9.2143,62.0172
SN245200,KILSBERGEN-SUTTARBODA,SE,219.0,14.8986111111111,59.2994444444444
SN31500,FRØYSTUL,NO,875.0,8.3477,59.8247
SN34900,POSTMYR I DRANGEDAL,NO,464.0,8.7687,59.2647
SN91010,FV91 BREIVIKEIDET,NO,20.0,19.5678,69.656
SN228270,MALKÄLEN D,SE,235.0,19.6903,64.3918
SN221990,HÅKAFOT D,SE,310.0,14.3913,64.3914
SN44563,FV509 SUNDEKROSSEN,NO,20.0,5.6147,58.9622
SN9160,FOLLDAL - FREDHEIM,NO,694.0,9.9947,62.1282
SN11340,RV4 LYGNA,NO,620.0,10.643,60.4548
SN44545,FV510 REGE,NO,30.0,5.6468,58.858
SN35860,LYNGØR FYR,NO,4.0,9.1478,58.6362
SN57940,ÅLFOTEN II,NO,24.0,5.6674,61.83195
SN52458,FV217 STEINRUSTEN,NO,78.0,5.2067,60.4472
SN241010,DALA-JÄRNA D,SE,235.0,14.366,60.56
SN98645,HUBEHYTTA,NO,175.0,30.0648,70.3222
SN299300,HAMMARLAND MARKET,FI,3.0,19.1313888888889,60.3011111111111
SN94500,FRUHOLMEN FYR,NO,13.0,23.9817,71.0937
SN59815,FV5876 RUNDEBRUA,NO,20.0,5.6275,62.3792
SN1675400,HERAKLEION (AIRPORT),GR,35.0,25.1819444444444,35.3352777777778
SN44760,IMS,NO,2.0,5.9643464,58.9051712
SN76960,GRANEFELTET,NO,,2.4873,59.1652
SN6020,FLISA II,NO,185.0,12.0125,60.6142
SN65530,FV714 HITRA,NO,74.0,9.0533,63.554
SN250000,NORDKOSTER,SE,33.0,11.0038888888889,58.8919444444444
SN258900,GOTSKA SANDON,SE,16.0,19.1977777777778,58.3944444444444
SN58810,RV651 STIGEDALEN,NO,283.0,6.1377,61.9405
SN91728,FV7940 ARNØYA,NO,30.0,20.5647,70.0662
SN69280,E14 MEÅDAL,NO,90.0,11.4957,63.4652
SN57850,DAVIKNES,NO,78.0,5.5333,61.8986
SN60030,SYKKYLVEN - STRAUMGJERDET,NO,2.0,6.5912,62.337
SN71900,BESSAKER,NO,12.0,10.3257,64.2448
SN25040,RV52 EIKREDAMMEN,NO,570.0,8.7443,60.786
SN218410,MARKUSVINSA,SE,164.0,22.9001,66.7265
SN380800,CAMBORNE,GB,87.0,-5.3275,50.2183333333333
SN77041,GUDRUNFELTET,NO,30.0,1.7437,58.8452
SN1648000,COZZO SPADARO,IT,46.0,15.1313888888889,36.6861111111111
SN295200,PORI AIRPORT,FI,12.0,21.7880555555556,61.4672222222222
SN286300,KEMI I LIGHTHOUSE,FI,25.0,24.0961111111111,65.3852777777778
SN84900,BJØRNFJELL,NO,512.0,18.0767,68.4323
SN31410,RJUKAN,NO,258.0,8.6663,59.88
SN624000,AMSTERDAM AP SCHIPHOL,NL,-3.0,4.78972222222222,52.3172222222222
SN69020,RANHEIM,NO,27.0,10.515,63.4268
SN251310,KÄRNA,SE,21.0,11.8086,57.8403
SN604100,SKAGEN FYR,DK,3.0,10.6316666666667,57.7363888888889
SN224780,VÄSTERÖVSJÖ D,SE,285.0,15.9347,63.0421
SN71990,BUHOLMRÅSA FYR,NO,18.0,10.455,64.4013
SN60990,VIGRA,NO,22.0,6.115,62.5617
SN45460,RV13 JØRPELAND,NO,10.0,6.049,59.0147
SN94195,E6 AISAROAIVI,NO,238.0,24.1009,70.2784
SN26996,SANDE - LAUVKOLLMYR,NO,437.0,10.104,59.6469
SN61340,ÅNDALSNES - KAMSHAUGEN,NO,4.0,7.672,62.5643
SN54710,FILEFJELL - KYRKJESTØLANE,NO,956.0,8.1125,61.178
SN226000,VASTMARKUM,SE,142.0,18.2555555555556,63.1252777777778
SN73210,FV74 SANDØLA,NO,467.0,13.1005,64.491
SN1284300,BUDAPEST/PESTSZENTLORINC,HU,138.0,19.182222,47.429167
SN26350,SIGDAL - NEDRE EGGEDAL,NO,143.0,9.4391,60.1358
SN11690,RV4 EINA,NO,410.0,10.6308,60.6125
SN58900,STRYN - KROKEN,NO,208.0,6.5585,61.9157
SN99910,NY-ÅLESUND,SJ,8.0,11.9325,78.9218
SN44554,SOLA - GRANNES,NO,2.0,5.67219,58.9144
SN81760,RV77 GRADDIS,NO,601.0,15.8227,66.7525
SN205410,ESRANGE,SE,328.0,21.0846,67.8911
SN1635000,CROTONE,IT,159.0,17.0791666666667,38.9966666666667
SN226090,MULTRÅ D,SE,63.0,17.4192,63.1681
SN55670,VEITASTROND,NO,172.0,7.034,61.4783
SN84380,E6 SKJOMENBRUA,NO,30.0,17.2438,68.371
SN3303600,MOZYR,BY,,29.1922222222222,52.0363888888889
SN35340,RISØR BRANNSTASJON,NO,36.0,9.2111,58.7183
SN18410,RV150 AKER SYKEHUS,NO,140.0,10.798,59.941
SN2606300,ST.PETERSBURG (VOEJKOVO),RU,3.0,30.3,59.9667
SN1229500,BIALYSTOK,PL,148.0,23.1722222222222,53.1083333333333
SN10380,RØROS LUFTHAVN,NO,625.0,11.3518,62.5773
SN25112,HEMSEDAL - HOLLEKOLTEN,NO,807.0,8.5175,60.8705
SN30244,E18 VASSBOTN,NO,70.0,9.923,59.0727
SN13655,SKÅBU,NO,928.0,9.4023,61.5308
SN89350,BARDUFOSS,NO,76.0,18.5437,69.0577
SN82720,SISOVATNET,NO,665.0,15.8282,67.3335
SN47730,E134 FJÆRA,NO,4.0,6.3815,59.8735
SN241100,ARVIKA,SE,66.0,12.6380555555556,59.6747222222222
SN230800,TANNAS,SE,723.0,12.6702777777778,62.4502777777778
SN97120,E6 BARTA,NO,120.0,26.1457,69.7563
SN61062,TOMREFJORD,NO,3.0,6.9247,62.6062
SN99874,JANSSONHAUGEN VEST,SJ,250.0,16.41,78.18
SN1615800,PISA S. GIUSTO,IT,2.0,10.3955555555556,43.6825
SN15270,JUVVASSHØE,NO,1894.0,8.369,61.6775
SN74780,NAMSVATN II,NO,460.0,13.5403,64.9608
SN1292500,NAGYKANIZSA,HU,139.0,16.970556,46.456111
SN1712400,ESKISEHIR HAVALIMANI,TR,786.0,30.5797,39.781
SN94805,E69 VEDBOTN,NO,10.0,25.6297,70.7765
SN248690,SÖDERTÄLJE,SE,23.0,17.6289,59.2142
